X,Y,Record_ID,Store_Name,Store_Street_Address,Additonal_Address,City,State,Zip_Code,Zip4,County,Store_Type,Latitude,Longitude,Incentive_Program,Grantee_Name,ObjectId
-10626566.9400877,3539752.34864124,1635375,DOLLARTREE 9998,220 S Loop 336 W,,Conroe,TX,77304,3306,MONTGOMERY,Other,30.281242,-95.460075,,,2
-10853981.5278293,3539229.89713463,1628539,Bless Food Mart,8603 Lockwood Springs Rd,,Manor,TX,78653,4823,TRAVIS,Convenience Store,30.277189,-97.502975,,,7
-10763690.7341248,3897717.43577925,1413606,Amba,1524 14th St,,Plano,TX,75074,6304,COLLIN,Convenience Store,33.018181,-96.691879,,,50
-10747626.2184084,3729648.37824889,1635792,Dollar General 30928,100 S Main St,,Jewett,TX,75846,4621,LEON,Other,31.743198,-96.547569,,,51
-10759002.6250896,3876008.6160788,1628627,Store T-24,11740 Ferguson Rd,,Dallas,TX,75228,8202,DALLAS,Convenience Store,32.854511,-96.649765,,,54
-10651828.5608139,3463661.12231777,1631371,Foodmattas,8433 Fm 1464 Rd,Ste C,Richmond,TX,77407,1102,FORT BEND,Grocery Store,29.689196,-95.687004,,,55
-10638724.6982747,3465679.76139569,1631812,Sun Wing Bellaire Market Llc,10796 Bellaire Blvd,Ste A,Houston,TX,77072,2734,HARRIS,Other,29.704948,-95.56929,,,61
-10900626.8435005,3489696.04858743,1628470,African Eats & Market,1330 Aquarena Springs Dr,Ste 103,San Marcos,TX,78666,7241,HAYS,Convenience Store,29.892164,-97.921997,,,65
-10772396.9201803,3873089.66892408,939647,7-Eleven 12137,3702 Greenville Ave,,Dallas,TX,75206,5312,DALLAS,Convenience Store,32.832481,-96.770088,,,78
-10738185.4350332,3859835.52137734,1637867,QuikTrip 1928,1040 Fm 741,,Crandall,TX,75114,3625,KAUFMAN,Convenience Store,32.73238,-96.462761,,,79
-10757474.7650784,3325110.76749478,1631826,Texas Star,1749 W Austin St,,Port Lavaca,TX,77979,3711,CALHOUN,Convenience Store,28.602192,-96.63604,,,131
-10752888.5133772,3874255.17341825,1397961,7-eleven Convenience Store 32914B,6122 Broadway Blvd,,Garland,TX,75043,5826,DALLAS,Convenience Store,32.841278,-96.594841,,,133
-10599999.9870124,3520021.79218969,1422011,Parkway Market #1,21930 Loop 494,,New Caney,TX,77357,8243,MONTGOMERY,Convenience Store,30.128063,-95.22142,,,135
-11072342.6127041,3177640.95497294,1633948,Dollar General 30021,5597 Cielito Lindo Blvd,,Laredo,TX,78046,    ,WEBB,Other,27.432734,-99.464546,,,136
-10587639.2933937,3521434.17355418,1631500,Kudos,31710 Fm 1485 Rd,,New Caney,TX,77357,7845,HARRIS,Convenience Store,30.139036,-95.110382,,,137
-11183559.0216489,3875230.24766298,1632961,Dollar General 30748,500 S Mckinley Ave,,Rotan,TX,79546,    ,FISHER,Other,32.848637,-100.46362,,,140
-10610149.9868635,3457827.78795199,1625118,Star Maxx 2,9250 Mykawa Rd,,Houston,TX,77048,1312,HARRIS,Convenience Store,29.643663,-95.312599,,,212
-10936886.0506806,3041225.25272386,1627489,La Ganadera Gourmet Tres Lagos 4,4312 Tres Lagos Blvd,Ste 4,Mcallen,TX,78504,    ,HIDALGO,Convenience Store,26.339779,-98.247719,,,215
-10953049.0841464,3440948.74261748,1394792,Asia Supermarket Group,4925 Windsor Hl,,Windcrest,TX,78239,2432,BEXAR,Grocery Store,29.511795,-98.392914,,,219
-10616276.0097613,3459920.71001679,1627166,Sunny Side Food Store,9123 Scott St,,Houston,TX,77051,2709,HARRIS,Convenience Store,29.660002,-95.36763,,,283
-10756943.1031904,3861935.70573169,1397596,Big Five,1499 S Peachtree Rd,,Balch Springs,TX,75180,1101,DALLAS,Convenience Store,32.748249,-96.631264,,,376
-10646468.6386517,3488021.29056961,1620891,Premier Meat Market,15315 Fm 529 Rd,Ste 140,Houston,TX,77095,5683,HARRIS,Grocery Store,29.87912,-95.638855,,,377
-10618685.5201395,3825351.22968239,1392022,Raceway 6760,3318 S Main St,,Lindale,TX,75771,7856,SMITH,Convenience Store,32.471413,-95.389275,,,378
-10842624.7133786,3214112.07832576,1634562,DOLLARTREE 10161,3838 S Padre Island Dr,,Corpus Christi,TX,78415,2921,NUECES,Other,27.723135,-97.400955,,,379
-10567677.3709852,3426033.74466566,1174244,Palmer Food Mart,2502 Palmer Hwy,,Texas City,TX,77590,7002,GALVESTON,Convenience Store,29.395128,-94.931061,,,380
-10798082.334208,3556090.33907547,960219,Hildebrandt Meat Market,8583 N Highway 77,,Lexington,TX,78947,5326,LEE,Grocery Store,30.407902,-97.000824,,,381
-10444069.3216032,3517363.75397558,1632964,Dollar General 30783,16345 Highway 62 S,,Orange,TX,77630,    ,ORANGE,Other,30.107409,-93.820671,,,382
-10552676.9582813,3506265.94010582,1627711,South Liberty Seafood,115 Duff St,,Liberty,TX,77575,3972,LIBERTY,Specialty Store,30.021128,-94.79631,,,383
-10913682.2820612,3035388.42151261,1633867,Tex Best Travel Center 533,13625 E State Hwy 107,,La Blanca,TX,78558,    ,HIDALGO,Convenience Store,26.29278,-98.039276,,,470
-10501965.2529309,3784888.25135945,1627680,Fuel N Go,615 N Saint Mary St,,Carthage,TX,75633,1625,PANOLA,Convenience Store,32.164234,-94.340759,,,471
-10901371.6822134,3035691.76067917,1194968,J&f Taquito Express,1003 S Mike Chapa Blvd,,La Villa,TX,78562,9800,HIDALGO,Convenience Store,26.295223,-97.928688,,,472
-11711103.2017132,3755116.53879454,1412885,Two T's,201 W 1st St,,Dell City,TX,79837,    ,HUDSPETH,Convenience Store,31.937555,-105.20263,,,473
-10797351.0764729,3891288.93907012,1374163,Coppell 7-11 - #27658 27658,100 W Sandy Lake Rd,,Coppell,TX,75019,2505,DALLAS,Convenience Store,32.969746,-96.994255,,,490
-10783168.6393874,3858251.99488237,1409759,Thrift Mart,2819 W Illinois Ave,,Dallas,TX,75233,1005,DALLAS,Other,32.720413,-96.866852,,,514
-10785215.4708646,3849506.5302583,1627853,Grand Trip,7500 S Westmoreland Rd,,Dallas,TX,75237,3306,DALLAS,Convenience Store,32.654293,-96.885239,,,516
-10782018.7090475,3860978.93663868,1618795,Corner Market,500 S Hampton Rd,,Dallas,TX,75208,5621,DALLAS,Convenience Store,32.74102,-96.856522,,,517
-10770812.1759093,3825497.16548323,1628622,Tiger Mart 66,3120 Fm 813 W,,Palmer,TX,75152,8003,ELLIS,Convenience Store,32.472519,-96.755852,,,518
-10631874.2081308,3512265.05195028,1408288,Kohinoor Indo/pak Grocery Halal Meat & Cafe,20423 Kuykendahl Rd,Ste 300,Spring,TX,77379,3492,HARRIS,Grocery Store,30.067778,-95.507751,,,519
-10890317.2114996,3530987.35045315,1381705,Sanvi Austin Llc,3421 W William Cannon Dr,Ste 133,Austin,TX,78745,5022,TRAVIS,Other,30.213224,-97.829384,,,520
-10883103.2632183,3531962.9293248,1627328,Cuban Grocery Co #4 4,4201 S Congress Ave,Ste 300,Austin,TX,78745,1156,TRAVIS,Grocery Store,30.220797,-97.76458,,,521
-11397210.0675488,3755217.41377797,1634551,CIRCLE K 2709999,1600 E 87th St,,Odessa,TX,79765,    ,ECTOR,Convenience Store,31.938324,-102.38288,,,525
-10763006.2305759,3867771.30925812,1634103,Joe V's Smart Shop 805,7700 Samuell Blvd,,Dallas,TX,75227,    ,DALLAS,Supermarket,32.792328,-96.68573,,,581
-10761598.0390174,3873356.62377886,1618256,WB Ferguson Shell,10290 Ferguson Rd,,Dallas,TX,75228,3013,DALLAS,Convenience Store,32.834496,-96.67308,,,582
-10785939.0475548,3847632.4941775,928284,7-Eleven 27334,826 E Highway 67,,Duncanville,TX,75137,3406,DALLAS,Convenience Store,32.640118,-96.891739,,,585
-10565660.261812,3842275.11608794,1632958,Dollar General 30791,9338 US Highway 271 S,,Gladewater,TX,75647,7411,UPSHUR,Other,32.599583,-94.912941,,,586
-10742448.8602111,3908572.46727117,1634428,DOLLARTREE 9877,5353 Fm 982,,Princeton,TX,75407,4733,COLLIN,Other,33.099907,-96.50106,,,587
-10683307.0411425,3371729.64980795,1631071,Fd Food Mart,3400 Avenue F,,Bay City,TX,77414,7110,MATAGORDA,Convenience Store,28.969225,-95.96978,,,667
-10604824.017146,3478366.04383673,1626992,Ta Express Houston,4808 N McCarty St,,Houston,TX,77371,3010,SAN JACINTO,Convenience Store,29.803886,-95.264755,,,668
-10683152.4183698,3369200.62131736,1624681,Big Star,5201 Avenue F,,Bay City,TX,77414,8579,MATAGORDA,Convenience Store,28.949347,-95.968391,,,669
-10808160.0877095,3885095.64731881,1259923,7-eleven Convenience Store 35397B,1700 William D Tate Ave,,Grapevine,TX,76051,3968,TARRANT,Convenience Store,32.923058,-97.091354,,,670
-10506980.4186302,3835528.15058243,975514,El Paisano Supermarket,2001 W Grand Ave,,Marshall,TX,75670,2905,HARRISON,Supermarket,32.548508,-94.385811,,,671
-11010354.7995339,3467431.20521853,1400300,Pipe Creek Market ,11696 State Highway 16 S,,Pipe Creek,TX,78063,5351,BANDERA,Convenience Store,29.718613,-98.9077,,,674
-10778303.8663202,3860141.47996937,1628829,Seaneen Mart,1041 S Beckley Ave,,Dallas,TX,75203,2879,DALLAS,Convenience Store,32.734692,-96.823151,,,695
-10772254.2085931,3863163.24737286,453956,Emily Grocery,1818 Metropolitan Ave,,Dallas,TX,75215,3657,DALLAS,Convenience Store,32.757523,-96.768806,,,696
-10770517.4018977,3863038.95197298,1631293,Jjmg Food Mart 24/7,4600 Malcolm X Blvd,,Dallas,TX,75215,4733,DALLAS,Convenience Store,32.756584,-96.753204,,,697
-10572503.961467,3916095.45805734,1627263,Blue Mart,101 S Edwards Ave,,Mount Pleasant,TX,75455,4381,TITUS,Convenience Store,33.156502,-94.974419,,,698
-10785167.8261225,3879481.02672337,1422850,7-eleven Sizy Inc 22889,10998 Harry Hines Blvd,,Dallas,TX,75220,1316,DALLAS,Convenience Store,32.880711,-96.884811,,,699
-10783978.043405,3873586.48802408,1628630,Regal Row Chevron,1607 Regal Row,,Dallas,TX,75247,3621,DALLAS,Convenience Store,32.836231,-96.874123,,,700
-10509985.2656451,3954233.23407496,1632959,Dollar General 30812,1100 S McCoy Blvd,,New Boston,TX,75570,3803,BOWIE,Other,33.442848,-94.412804,,,703
-11072771.5267022,3184825.92196559,1379517,Super Carnes Texas ,2720 Jaime Zapata Memorial Hwy,,Laredo,TX,78043,4864,WEBB,Grocery Store,27.490005,-99.468399,,,708
-10970378.1892781,3437727.83335195,1417176,Lucky Spot,4301 Fredericksburg Rd,,San Antonio,TX,78201,1951,BEXAR,Convenience Store,29.486612,-98.548584,,,709
-11347341.1620633,3973874.46387305,1637457,Grocery Services North 17,606 W Loop 289,Ste 200,Lubbock,TX,79416,4283,LUBBOCK,Grocery Store,33.589951,-101.9349,,,712
-11526093.5475995,3417324.60155848,1635791,Dollar General 31161,23330 Fm 170,,Terlingua,TX,79852,9005,BREWSTER,Other,29.326942,-103.54066,,,715
-11397302.4627262,3755261.75181403,1628292,Prime Haus Meats,1101 E 87th St,Ste 305,Odessa,TX,79765,2066,ECTOR,Grocery Store,31.938662,-102.38371,,,716
-10762596.9088083,3899406.53851168,1208136,7-eleven Convenience Store 20767B,2417 Jupiter Rd,,Plano,TX,75074,4903,COLLIN,Convenience Store,33.030903,-96.682053,,,736
-10756578.754497,3908598.24678614,1051564,7-eleven 33130,1600 E Main St,,Allen,TX,75002,4480,COLLIN,Convenience Store,33.100101,-96.627991,,,739
-10639508.6101289,3983394.73415496,1628923,Kwik Pick,1870 Bonham St,,Paris,TX,75460,3702,LAMAR,Convenience Store,33.661163,-95.576332,,,740
-10874307.0196948,3567990.04496017,928661,7-Eleven 21359,600 McNeil Rd,,Round Rock,TX,78681,6703,WILLIAMSON,Convenience Store,30.500051,-97.685562,,,746
-10623853.4161801,3499239.70285463,1631464,La Monarca Meat Market #2,1050 W Rankin Rd,Ste 230 & 240,Houston,TX,77067,1613,HARRIS,Convenience Store,29.966463,-95.435699,,,749
-10503002.3053072,3863730.73407755,1632083,V Mart,505 E Broadway St,,Jefferson,TX,75657,1809,MARION,Convenience Store,32.76181,-94.350075,,,762
-10808911.7169113,3864668.53033158,1627714,Iyanu African Caribbean Marketplace ,2154 N Collins St,,Arlington,TX,76011,2877,TARRANT,Grocery Store,32.768894,-97.098106,,,763
-10839855.1957671,3868334.51539271,1631417,Primos Food Mart,2600 Azle Ave,,Fort Worth,TX,76106,5101,TARRANT,Convenience Store,32.796581,-97.376076,,,764
-10826092.2105229,3876870.52642024,1630778,Sana Restaurant And Halal Grocery,5941 Watauga Rd,,Watauga,TX,76148,3145,TARRANT,Grocery Store,32.861015,-97.252441,,,765
-10839209.65404,3869340.3549415,1381763,T & T Groceries,3407 W Long Ave,,Fort Worth,TX,76106,5317,TARRANT,Convenience Store,32.804176,-97.370277,,,766
-10633461.6240695,3460566.24245925,1380675,Welcome Food Mart,8103 Creekbend Dr,STE A,Houston,TX,77071,1555,HARRIS,Convenience Store,29.665041,-95.522011,,,767
-10641519.7080495,3816701.33498089,1624192,Cross Country Food & Fuel,7165 State Highway 64,,Ben Wheeler,TX,75754,4398,VAN ZANDT,Convenience Store,32.405834,-95.594398,,,804
-10641947.8428111,3462124.54421211,1632322,Mina Halal Meat,12450 Bissonnet St,Ste 210,Houston,TX,77099,1392,HARRIS,Other,29.677204,-95.598244,,,817
-10954978.6961998,3440596.21079096,1632382,Sisters African Store,2373 Austin Hwy,,San Antonio,TX,78218,1982,BEXAR,Convenience Store,29.509039,-98.410248,,,818
-10790674.6900126,3871156.77853134,1194562,7-Eleven Convenience Store 21446C,510 N Nursery Rd,,Irving,TX,75061,7734,DALLAS,Convenience Store,32.81789,-96.93428,,,857
-10797314.5636799,3871758.16472083,945902,7-Eleven 27644,801 N Belt Line Rd,,Irving,TX,75061,6317,DALLAS,Convenience Store,32.82243,-96.993927,,,858
-10960670.684403,3423149.67844433,930866,SHOP-N-GO FOOD MART,5455 S New Braunfels Ave,,San Antonio,TX,78223,2687,BEXAR,Convenience Store,29.372553,-98.46138,,,874
-10974742.6925537,3439604.67055195,1216222,Rite Stop Food Mart ,7103 Wurzbach Rd,,San Antonio,TX,78240,3845,BEXAR,Convenience Store,29.501287,-98.587791,,,876
-11058416.6557254,3650311.32901005,1631675,Brady Food Mart 2,600 W Commerce St,,Brady,TX,76825,4420,MCCULLOCH,Convenience Store,31.135134,-99.339447,,,914
-10647286.5029506,3481926.78398722,1632001,La Holguinera Latin Market ,4025 Highway 6 N,Ste 105A,Houston,TX,77084,6077,HARRIS,Other,29.831638,-95.646202,,,1042
-10948022.8978176,3028035.61118214,1416403,Stripes 41696H,1800 W Griffin Pkwy,,Mission,TX,78572,7350,HIDALGO,Convenience Store,26.233547,-98.347763,,,1043
-11340700.9544374,4191421.71650862,1183426,Aye San Bu 2,3401 Plains Blvd,,Amarillo,TX,79102,1018,POTTER,Grocery Store,35.202408,-101.87525,,,1046
-10661731.4313954,3450455.75743018,1628913,A & B Food Mart #2,611 Pultar Rd,,Richmond,TX,77469,1560,FORT BEND,Convenience Store,29.58609,-95.775963,,,1100
-10778855.0091192,3896169.28358179,1413589,My Beer Store 2,18900 Dallas Pkwy,Ste 100,Dallas,TX,75287,6914,COLLIN,Convenience Store,33.006519,-96.828102,,,1168
-10772403.7106692,3869805.75863185,948561,highland food store,1406 Greenville Ave,,Dallas,TX,75206,7703,DALLAS,Convenience Store,32.80769,-96.770149,,,1171
-10544153.4475102,3869344.99034571,1633560,Prabal,509 US Highway 259 N,,Ore City,TX,75683,2111,UPSHUR,Convenience Store,32.804211,-94.719742,,,1174
-10831679.0018073,3201130.82105578,1633364,Yorktown Express 1,341 Yorktown Blvd,,Corpus Christi,TX,78418,3180,NUECES,Convenience Store,27.61986,-97.302628,,,1186
-10774616.1855487,3865819.56411032,1627921,Kelley Produce Dfm,920 S Harwood,Unit 162,Dallas,TX,75201,    ,DALLAS,Other,32.777588,-96.790024,,,1277
-10760333.449602,3858242.99742815,1320891,Dearl's Grocery ,9223 Elam Rd,,Dallas,TX,75217,4152,DALLAS,Convenience Store,32.720345,-96.66172,,,1283
-10784787.336103,3860217.70618223,1635014,Pay Low Food Beer & Wine,3701 W Clarendon Dr,Ste 100,Dallas,TX,75211,4937,DALLAS,Convenience Store,32.735268,-96.881393,,,1287
-10985657.9025844,3447556.90960739,1381271,Meat Market,12952 Bandera Rd,Ste 101,Helotes,TX,78023,4690,BEXAR,Specialty Store,29.563442,-98.685844,,,1289
-10886247.3709162,3562988.93547289,1638249,7-Eleven 36589J,10207 Lake Creek Pkwy,,Austin,TX,78729,1712,WILLIAMSON,Convenience Store,30.461334,-97.792824,,,1290
-10769467.6590995,3883312.47203319,1627006,Abyssinia Market No,9191 Forest Ln,Ste 1,Dallas,TX,75243,8933,DALLAS,Other,32.909611,-96.743774,,,1293
-10763250.0202608,3884269.99831126,1397707,Cherry Grocery Store,3801 W Walnut St,Ste 100,Garland,TX,75042,6258,DALLAS,Grocery Store,32.916832,-96.68792,,,1296
-10611952.2494194,3803303.56760862,1631191,Shapla Mart,2211 W Southwest Loop 323,,Tyler,TX,75701,8434,SMITH,Convenience Store,32.304165,-95.328789,,,1298
-10765759.6068612,3888090.40545324,1421329,Ez Trip Food Store #22,1031 Frances Way,,Richardson,TX,75081,4340,DALLAS,Convenience Store,32.945637,-96.710464,,,1299
-10890688.3506819,3523246.70013116,1618482,Global Foodland,11501 Menchaca Rd,,Austin,TX,78748,2713,TRAVIS,Grocery Store,30.153116,-97.832718,,,1304
-11010103.3288042,3393528.73882441,1633402,Devine Food Store ,102 N Teel Dr,,Devine,TX,78016,2933,MEDINA,Convenience Store,29.140406,-98.905441,,,1305
-10653509.3738054,3486100.92963074,1634452,Dara African Grocery,19125 W Little York Rd,Ste A,Katy,TX,77449,5775,HARRIS,Grocery Store,29.864161,-95.702103,,,1312
-10848227.5346697,3856016.73530158,1633520,4 U Convenient Store,4900 Benbrook Blvd,,Benbrook,TX,76116,8874,TARRANT,Convenience Store,32.703518,-97.451286,,,1379
-10629834.278462,3467562.97367883,1628722,Handi Stop,6101 Glenmont Dr,Ste A,Houston,TX,77081,1471,HARRIS,Convenience Store,29.719641,-95.489426,,,1380
-10811230.390585,3707132.43311655,1633248,Shop N Save #2 1,1101 Elm Ave,,Waco,TX,76704,2626,MCLENNAN,Convenience Store,31.57103,-97.118935,,,1382
-10609692.2411173,3494696.59026618,1633737,Prime 24/7,14521 Picton Dr,,Houston,TX,77032,4338,HARRIS,Convenience Store,29.931101,-95.308487,,,1384
-10631614.3884393,3465892.25464388,1634664,Simply Halal,6806 Bintliff Dr,,Houston,TX,77074,3516,HARRIS,Grocery Store,29.706606,-95.505417,,,1431
-10966599.6718022,4015940.70645236,1638859,Dollar Saver 27,2214 9th St,,Wichita Falls,TX,76301,4029,WICHITA,Convenience Store,33.904163,-98.514641,,,1434
-10962959.5244532,3028462.65260857,1635049,Leo's 2,1001 S Leo Ave,,La Joya,TX,78560,4304,HIDALGO,Convenience Store,26.236988,-98.481941,,,1435
-10651396.3072312,3485175.44903469,1632690,1 Stop #12,5734 Barker Cypress Rd,,Houston,TX,77084,    ,HARRIS,Convenience Store,29.856951,-95.683121,,,1436
-10735571.319431,3862677.98650013,1634802,Fast Fuel,1150 Fm 548 N,,Forney,TX,75126,    ,KAUFMAN,Convenience Store,32.753857,-96.439278,,,1437
-10787345.4580014,3461599.3666258,1635291,Leo's Stop N Save,1306 Lyons Ave,,Schulenburg,TX,78956,2110,FAYETTE,Convenience Store,29.673105,-96.904373,,,1438
-10872918.4203666,3552069.40701543,1633298,La Placita Supermarket Llc 1,900 E Braker Ln,Ste 180,Austin,TX,78753,3239,TRAVIS,Other,30.376745,-97.673088,,,1439
-10965892.2364382,3437574.50105193,1621042,In & Out Express #4,4211 Blanco Rd,,San Antonio,TX,78212,1181,BEXAR,Convenience Store,29.485413,-98.508286,,,1531
-10889014.3281794,3568103.22168243,1627778,International Foods,851 S Bell Blvd,,Cedar Park,TX,78613,3926,WILLIAMSON,Grocery Store,30.500927,-97.81768,,,1533
-11334251.1031409,4196103.02072858,1637456,Grocery Services North 16,1401 NE 24th Ave,,Amarillo,TX,79107,6638,POTTER,Grocery Store,35.236763,-101.81731,,,1607
-11362748.892784,3767450.92943782,1635794,Dollar General 31004,3211 Sage St,,Midland,TX,79705,5711,MIDLAND,Other,32.031536,-102.07331,,,1608
-10978749.7489443,3434540.19907071,1626855,Family Asian Market,6750 Ingram Rd,,San Antonio,TX,78238,4121,BEXAR,Convenience Store,29.461683,-98.623787,,,1639
-10852206.5385486,3895967.78131473,1635415,DOLLARTREE 10026,416 Fm 718,,Newark,TX,76071,3813,WISE,Other,33.005001,-97.48703,,,1640
-10638715.3474375,3453062.94649699,1388043,Bomir Foods,810 Success Ct,,Stafford,TX,77477,5574,FORT BEND,Other,29.606455,-95.569206,,,1643
-10937156.1117653,3886816.7539571,1628398,Graford Mart,204 W Lee Ave,,Graford,TX,76449,6533,PALO PINTO,Convenience Store,32.936035,-98.250145,,,1684
-10838368.857926,3644225.27622503,1248063,Temple Food Mart ,1304 S 31st St,,Temple,TX,76504,6753,BELL,Convenience Store,31.088326,-97.362724,,,1685
-10816377.1359224,3858430.75454959,1628849,Ria Food Mart & Wireless,3603 W Park Row Dr,,Arlington,TX,76013,3027,TARRANT,Convenience Store,32.721764,-97.165169,,,1686
-10807193.6118904,3874431.52614932,1199326,Victory Tropical Market Inc,415 N Main St,Ste 104,Euless,TX,76039,3614,TARRANT,Grocery Store,32.842609,-97.082672,,,1687
-10786228.7008698,3924470.89984645,1637861,Costco Wholesale 1694,5620 W University Dr,,Prosper,TX,75078,3830,COLLIN,Super Store,33.219467,-96.894341,,,1688
-10965439.5000691,3419749.02683292,1633145,Quick Stop,3319 Pleasanton Rd,,San Antonio,TX,78221,2330,BEXAR,Convenience Store,29.345928,-98.504219,,,1689
-10975033.2364247,3432898.92868572,1628533,Xpress Food Mart,4311 Culebra Rd,,San Antonio,TX,78228,4446,BEXAR,Convenience Store,29.448845,-98.590401,,,1690
-10971611.3865972,3432804.84127309,1630238,Padilla's Grocery ,3006 Culebra Rd,,San Antonio,TX,78228,6105,BEXAR,Convenience Store,29.448109,-98.559662,,,1692
-10639503.4894323,3472181.87538501,1625437,Sun Food Store,740 Wilcrest Dr,,Houston,TX,77042,1348,HARRIS,Convenience Store,29.755669,-95.576286,,,1708
-10596754.0219804,3484628.53555105,1131232,Express Fuel #9,13302 Tidwell Rd,,Houston,TX,77044,1547,HARRIS,Convenience Store,29.85269,-95.192261,,,1709
-10616501.8770081,3465215.56940895,1635812,Delrio Food Mart,3402 Old Spanish Trl,,Houston,TX,77021,2265,HARRIS,Convenience Store,29.701326,-95.369659,,,1712
-10843363.6521584,2988750.82586252,1621160,La Esquinita 1,7877 Boca Chica Blvd,,Brownsville,TX,78521,6865,CAMERON,Convenience Store,25.916565,-97.407593,,,1715
-10947491.2359295,3031522.67935465,1638274,7-Eleven 41698H,1903 West 3 Mile Road,,Mission,TX,78573,    ,HIDALGO,Convenience Store,26.261642,-98.342987,,,1716
-10876587.3994637,3571119.3176438,1638250,7-Eleven 25945J,1909 Hermitage Dr,,Round Rock,TX,78681,1953,WILLIAMSON,Convenience Store,30.524269,-97.706047,,,1728
-10882973.242053,3536113.81176114,971319,7-eleven 34252,1403 S Lamar Blvd,,Austin,TX,78704,2390,TRAVIS,Convenience Store,30.253012,-97.763412,,,1729
-10640412.3017551,3497714.65977746,1632845,Take Fuel,12350 Jones Rd,,Houston,TX,77070,4802,HARRIS,Convenience Store,29.954594,-95.58445,,,1767
-10919471.1182214,3031959.13423742,1632784,Perlita's Drive Thru ,2802 Arcola Ln,,Edinburg,TX,78542,4162,HIDALGO,Convenience Store,26.265158,-98.091278,,,1768
-10856971.124074,3253662.14621739,1641092,Circle K 2709235,12275 State Highway 188,,Sinton,TX,78387,5613,SAN PATRICIO,Convenience Store,28.03718,-97.529831,,,1769
-10483227.1770042,3736239.81988881,1628431,H & S Discount Foods,705 Shelbyville St,,Center,TX,75935,3735,SHELBY,Other,31.793539,-94.172432,,,1833
-10827825.6776335,3868383.51414343,1634049,Quick Corner Store ,5412 E Belknap St,,Haltom City,TX,76117,    ,TARRANT,Convenience Store,32.796951,-97.268013,,,1836
-10623343.9068708,3454009.80713204,1616291,Zk Food Mart,3602 W Fuqua St,,Houston,TX,77045,6439,HARRIS,Convenience Store,29.61385,-95.431122,,,1838
-10646148.4837962,3469637.99219027,1632196,Emmanuel Store,13956 Westheimer Rd,,Houston,TX,77077,5359,HARRIS,Convenience Store,29.735828,-95.635979,,,1839
-10641039.9210442,3598553.1913208,1413815,Bar T Travel Center,601 State Highway 75 N,Ste B,Huntsville,TX,77320,1153,WALKER,Convenience Store,30.736326,-95.590088,,,1840
-10643604.8334316,3488130.54631401,1633323,Cho Que,13250 Fm 529 Rd,,Houston,TX,77041,2647,HARRIS,Convenience Store,29.879971,-95.613129,,,1841
-10880974.9458738,3557190.35977643,1638246,7-Eleven 36563J,11643 Research Blvd,,Austin,TX,78759,4031,TRAVIS,Convenience Store,30.416424,-97.745461,,,1842
-10931898.9374931,3032420.80269096,1621458,Sinbad International Market 1,4031 S McColl Rd,,Edinburg,TX,78539,8385,HIDALGO,Grocery Store,26.268877,-98.202919,,,1900
-10959975.1602245,3430548.35396534,342032,Malik's Corner Store,913 N Mittman,,San Antonio,TX,78202,1510,BEXAR,Convenience Store,29.430456,-98.455132,,,1905
-10969950.165836,3421914.86770327,1408452,New Somerset Food Mart,1403 Somerset Rd,,San Antonio,TX,78211,3039,BEXAR,Convenience Store,29.362886,-98.544739,,,1907
-10965423.3587429,3430034.42618383,1633658,Kyle 04 Llc 00001,907 W Commerce St,,San Antonio,TX,78207,4445,BEXAR,Convenience Store,29.426435,-98.504074,,,1908
-10795945.4452627,3877699.23382367,1627332,Abyssinia Market Irving ,4010 N Belt Ln Rd,,Irving,TX,75038,    ,DALLAS,Grocery Store,32.867268,-96.981628,,,1935
-10796967.2468687,3876841.76855244,1635610,Casa Himalaya,3343 Country Club Dr W,,Irving,TX,75038,5745,DALLAS,Convenience Store,32.860798,-96.990807,,,1936
-10878703.0263862,3649148.96377576,1624885,Manila Food Market,1017 N 8th St,,Killeen,TX,76541,3522,BELL,Convenience Store,31.126196,-97.725052,,,1974
-10979408.7603298,3440334.12059875,1632258,Roadrunner Market,7251 Eckhert Rd,,San Antonio,TX,78238,1245,BEXAR,Convenience Store,29.50699,-98.629707,,,1976
-10899258.6156391,3653137.19948424,1638429,Dollar General 30135,1869 N 1st St,,Copperas Cove,TX,76522,8621,CORYELL,Other,31.15686,-97.909706,,,1980
-11846871.7922694,3747383.42130273,253097,NORTHPARK SHAMROCK,9430 Dyer St,,El Paso,TX,79924,6413,EL PASO,Convenience Store,31.878584,-106.42226,,,2014
-10933581.4202769,3032300.01518954,253221,HEB 590,901 Trenton Rd,,McAllen,TX,78504,7705,HIDALGO,Supermarket,26.267904,-98.218033,,,2022
-10964356.6953822,4010786.12490582,253416,United Supermarket 516,4516 Old Jacksboro Hwy,,Wichita Falls,TX,76302,2920,WICHITA,Supermarket,33.865723,-98.494492,,,2045
-10631965.9353912,3459533.84161056,254079,Fiesta Mart 24,11240 Fondren Rd,,Houston,TX,77096,5508,HARRIS,Super Store,29.656982,-95.508575,,,2089
-10964818.6712689,3431846.62028974,254288,WALGREENS 03140,410 W Cypress St,,San Antonio,TX,78212,4601,BEXAR,Other,29.440613,-98.498642,,,2106
-10465855.5478269,3522140.35876193,242930,Walmart Supercenter 457,1360 N Main St,,Vidor,TX,77662,3727,ORANGE,Super Store,30.144522,-94.01638,,,2108
-10898861.205057,3221496.41772583,252065,LALOS MINI MART,2003 EAST HWY 44,,AGUA DULCE,TX,78330,    ,NUECES,Convenience Store,27.781839,-97.906136,,,2147
-10873798.2896218,3890130.89721779,243094,DOLLAR GENERAL  3910,403 Old Springtown Rd,,Springtown,TX,76082,    ,PARKER,Other,32.961018,-97.680992,,,2158
-11837874.9510235,3730621.92245888,252104,Walmart SUPERCENTER 512,10727 Gateway Blvd W,,El Paso,TX,79935,4906,EL PASO,Super Store,31.750635,-106.34144,,,2171
-10998610.5932552,3047395.13117718,252281,The Country Store 1,115 H H Rd,,Rio Grande City,TX,78582,9618,STARR,Convenience Store,26.389439,-98.8022,,,2223
-10485286.6989033,3737055.93072701,252319,Walmart Supercenter 364,765 Hurst St,,Center,TX,75935,3415,SHELBY,Super Store,31.79977,-94.190933,,,2229
-10780285.2419369,3818128.85495953,252337,Walmart Supercenter 260,1200 N Highway 77,,Waxahachie,TX,75165,5114,ELLIS,Super Store,32.41666,-96.84095,,,2231
-10596185.8472994,3476913.00895407,252484,Walgreens 04647,388 Uvalde Rd,,Houston,TX,77015,2213,HARRIS,Other,29.792559,-95.187157,,,2245
-10714679.3226768,3496870.94680197,252640,DOLLAR GENERAL 7145,651 E Main St,,Bellville,TX,77418,1617,AUSTIN,Other,29.948027,-96.251602,,,2260
-10625579.2022459,3526309.91749774,252798,WALGREENS 6782,19215 I - 45 S,,Shenandoah,TX,77385,8755,MONTGOMERY,Other,30.176907,-95.451202,,,2267
-10636165.7971398,3480773.84894034,252857,HEB 577,10251 Kempwood Dr,,Houston,TX,77043,1803,HARRIS,Supermarket,29.822653,-95.546303,,,2276
-10608185.5318094,3467161.77624468,252871,CVS/PHARMACY 6239,806 S 75th St,,Houston,TX,77023,4302,HARRIS,Other,29.716511,-95.294952,,,2278
-10623165.5730465,3486243.80103975,254292,NEWPORT SUPERMARKET,7214 Wheatley St,,Houston,TX,77088,7842,HARRIS,Convenience Store,29.865274,-95.42952,,,2294
-10847965.9338663,2987098.51273962,243252,JJ CARDENAS TORTILLERIA FACT,614 Morningside Rd,,Brownsville,TX,78521,4962,CAMERON,Grocery Store,25.903214,-97.448936,,,2296
-10809041.7380765,3864236.8223631,244254,Whole Foods Market 10098,801 E Lamar Blvd,,Arlington,TX,76011,3504,TARRANT,Super Store,32.765633,-97.099274,,,2314
-10844176.3957607,3223359.86184525,254329,Nu Way,2214 Leopard St,,Corpus Christi,TX,78408,3928,NUECES,Convenience Store,27.796648,-97.414894,,,2322
-10810740.2508671,3866567.51831536,244278,DOLLAR GENERAL 6490,100 Ne Grn Oaks,Bld #151,ARLINGTON,TX,76006,    ,TARRANT,Other,32.783237,-97.114532,,,2323
-11328921.1259217,4101000.65707565,243365,DOLLAR GENERAL 1938,429 SW 2nd St,,Tulia,TX,79088,2600,SWISHER,Other,34.535984,-101.76943,,,2325
-10876553.447019,3551030.60257039,254336,PARKFIELD ONE STOP FOOD MART,9436 Parkfield Dr,,Austin,TX,78758,6227,TRAVIS,Convenience Store,30.368694,-97.705742,,,2326
-10615061.5141168,3466452.59745118,1634334,Best Mini Market,3729 N MacGregor Way,,Houston,TX,77004,8005,HARRIS,Convenience Store,29.710978,-95.35672,,,2339
-10617471.024495,3483665.17232823,1634307,Mr. Express,86 Tidwell Rd,Ste E,Houston,TX,77022,1906,HARRIS,Convenience Store,29.845184,-95.378365,,,2344
-10716758.4368064,3860294.85925697,1559235,Trinity Concession And Restaurant Supplies ,615 E Moore Ave,,Terrell,TX,75160,3215,KAUFMAN,Grocery Store,32.735851,-96.270279,,,2376
-10606171.8735405,3503693.55278959,1564726,Star Stop 19,19555 McKay Dr,,Humble,TX,77338,5705,HARRIS,Convenience Store,30.001118,-95.276863,,,2379
-10947526.8581666,3041155.31943068,859997,Brandons Drive Thru,9520 N la Homa Rd,,Mission,TX,78574,4472,HIDALGO,Convenience Store,26.339216,-98.343307,,,2380
-10606752.8499629,3501450.30432401,1564806,Star Stop 56,7065 Will Clayton Pkwy,,Humble,TX,77338,8169,HARRIS,Convenience Store,29.983665,-95.282082,,,2381
-10627693.1593761,3594527.82142407,1564570,Family Dollar 13339,1495 US Highway 190,A,Huntsville,TX,77340,7383,WALKER,Other,30.70524,-95.470192,,,2396
-10878122.0499637,3541575.61952619,1564754,Star Stop 35,3828 N IH 35,,Austin,TX,78751,5202,TRAVIS,Convenience Store,30.295385,-97.719833,,,2399
-10930984.2252372,3015331.78481616,244367,JUNIORS SUPERMARKET 3,6501 S Cage Blvd,,Pharr,TX,78577,9182,HIDALGO,Super Store,26.131136,-98.194702,,,2417
-10571119.5922795,3423442.08019842,244371,KWIK STOP,602 Cedar Dr,,La Marque,TX,77568,4350,GALVESTON,Convenience Store,29.374842,-94.961983,,,2420
-10762852.4983591,3884320.12439761,244478,NEW TRUONG NGUYEN MARKET,3555 W Walnut St,Ste 221,Garland,TX,75042,4016,DALLAS,Super Store,32.91721,-96.684349,,,2443
-10530832.1780055,3623254.54979275,244507,CHESTER JIFFY MARKET,HWY 287 AND FM 1745,,CHESTER,TX,75936,    ,TYLER,Convenience Store,30.926863,-94.600075,,,2455
-10799854.8744598,3861697.86281094,244599,DOLLAR GENERAL 4515,508 N Carrier Pkwy,,Grand Prairie,TX,75050,5428,DALLAS,Other,32.746452,-97.016747,,,2483
-10631156.6426931,3468699.85315339,254648,Jerusalem Halal Meats,3330 Hillcroft St,,Houston,TX,77057,5800,HARRIS,Supermarket,29.72851,-95.501305,,,2492
-11342105.8064113,3970204.12454366,254903,Walgreens 4821,3404 Indiana Ave,,Lubbock,TX,79413,2302,LUBBOCK,Other,33.562481,-101.88787,,,2510
-10764703.1848936,3877313.43297543,255060,KROGER 511,10677 E Northwest Hwy,Ste 300,Dallas,TX,75238,4899,DALLAS,Super Store,32.864357,-96.700974,,,2530
-10821846.5964635,3874457.89316355,255061,DOLLAR GENERAL 0750,5300 Davis Blvd,,North Richland Hills,TX,76180,6824,TARRANT,Other,32.842808,-97.214302,,,2531
-10604098.7706634,3462862.31459038,255224,HOWARD FOOD STORE,8351 Howard Dr,,Houston,TX,77017,4729,HARRIS,Convenience Store,29.682962,-95.25824,,,2545
-10836725.4482835,3868145.67346601,244623,WALGREENS 5922,108 NE 28th St,,Fort Worth,TX,76164,7203,TARRANT,Other,32.795155,-97.347961,,,2577
-10910062.6174986,3019481.30991629,249945,HEB 485,310 N Westgate Dr,,Weslaco,TX,78596,2700,HIDALGO,Supermarket,26.164597,-98.00676,,,2590
-10983053.1378194,3440860.48084585,250029,WALGREENS  3804,7655 Tezel Rd,,San Antonio,TX,78250,3574,BEXAR,Other,29.511105,-98.662445,,,2597
-10904508.9994224,3009969.2112618,250078,Cepedas Fruit Stand,International 1015 # 307,Colonia La Frontera,Progreso,TX,78579,    ,HIDALGO,Other,26.087879,-97.956871,,,2603
-10753217.2398335,3867519.17961811,250180,Walmart Supercenter 789,200 US Highway 80 E,,Mesquite,TX,75149,1656,DALLAS,Super Store,32.790424,-96.597794,,,2614
-10556114.949435,3632344.6079454,250237,Brookshire Brothers 24,100 S Home St,,Corrigan,TX,75939,2616,POLK,Super Store,30.996885,-94.827194,,,2618
-10768669.3870311,3890369.71408364,250604,DOLLAR GENERAL 3560,531 W Arapaho Rd,Ste 105,Richardson,TX,75080,4344,DALLAS,Other,32.962818,-96.736603,,,2659
-11335802.8968425,4201933.3380077,250768,Toot'n Totum 52,6698 River Rd,,Amarillo,TX,79108,3618,POTTER,Convenience Store,35.27953,-101.83125,,,2671
-11053579.9351699,3859188.29689025,243882,DOLLAR GENERAL 3545,200 N Main St,,Albany,TX,76430,2986,SHACKELFORD,Other,32.727489,-99.295998,,,2717
-10840476.8038037,3642522.26992447,1634013,La Pasadita Supermarket Llc,2825 Thornton Ln,Unit 150,Temple,TX,76502,1837,BELL,Convenience Store,31.075224,-97.38166,,,2718
-10883988.2531701,3532068.31128085,251371,LUCKY FOOD STORES,4327 S FIRST ST,,AUSTIN,TX,78745,    ,TRAVIS,Convenience Store,30.221615,-97.77253,,,2751
-11399084.6877738,3745507.50585093,251428,7-ELEVEN 0121,1401 W University Blvd,,Odessa,TX,79764,7134,ECTOR,Convenience Store,31.864273,-102.39972,,,2756
-10629463.1392797,3486319.02418302,251659,Lewis Food Town 216,6470 W Little York Rd,,Houston,TX,77091,1110,HARRIS,Supermarket,29.86586,-95.486092,,,2778
-10937990.1173903,3025868.58002361,251875,STRIPES 9105,1001 W MIRACLE MILE,,MCALLEN,TX,78501,    ,HIDALGO,Convenience Store,26.216084,-98.257637,,,2798
-10483784.3310556,3592712.25852951,251916,SPURGER MINI MART,FM 1013 AND HWY 92,,SPURGER,TX,77660,    ,TYLER,Convenience Store,30.691216,-94.177437,,,2802
-10886779.0328043,3196680.35883583,243892,STRIPES 40818,201 N Bypass 77,,BISHOP,TX,78343,    ,NUECES,Convenience Store,27.584431,-97.7976,,,2806
-10949997.4829452,3031937.03808104,243906,STRIPES 40605,2900 W Mile 3 Rd,,Mission,TX,78574,5523,HIDALGO,Convenience Store,26.26498,-98.365501,,,2809
-11398873.1807413,3745543.02638511,243979,WALGREENS #6715 06715,1305 W University Blvd,,Odessa,TX,79764,7121,ECTOR,Other,31.864544,-102.39782,,,2812
-10904027.4313052,3009879.34985729,244012,DOLLAR GENERAL 8295,701 E Highway 281,,PROGRESO,TX,78579,    ,HIDALGO,Other,26.087154,-97.952545,,,2813
-10756911.5997745,3879072.36879751,1395157,Chill Zone Beer & Wine,3115 S 1st St,Ste 200,Garland,TX,75041,3424,DALLAS,Convenience Store,32.877628,-96.630981,,,2826
-10961777.311461,3424700.03202975,1631257,7-eleven Convenience Store 36629B,403 Fair Ave,,San Antonio,TX,78223,1113,BEXAR,Convenience Store,29.384689,-98.471321,,,2838
-10535184.7700955,3712959.86490855,244840,Brookshire Brothers 42,1420 N University Dr,,Nacogdoches,TX,75961,4221,NACOGDOCHES,Super Store,31.61562,-94.639175,,,2843
-11103112.7671128,3823584.57226878,244960,ALLSUPS 187,802 Grape St,,Abilene,TX,79601,4002,TAYLOR,Convenience Store,32.458023,-99.740959,,,2855
-10634520.7177049,3453839.76402726,1632664,Freshmart,902 Fm 2234 Rd,,Stafford,TX,77477,6477,FORT BEND,Convenience Store,29.612522,-95.531525,,,2864
-10648206.335903,3521125.63211528,1386103,Guerrerense Meat Market #5 00001,32360 Hwy 249,Ste 95,Pinehurst,TX,77362,    ,MONTGOMERY,Grocery Store,30.136639,-95.654465,,,2866
-10654320.4476153,3446859.30181794,1634402,Handi Stop #120,21950 Southwest Fwy,,Richmond,TX,77469,7110,FORT BEND,Convenience Store,29.557991,-95.709389,,,2868
-10551109.2458925,3832418.24417996,245183,WALGREENS 07264,1775 W Loop 281,,Longview,TX,75604,2734,GREGG,Other,32.524956,-94.782227,,,2882
-10790679.8107092,3842590.66299662,245243,Target T 1836,739 N Highway 67,,Cedar Hill,TX,75104,2142,DALLAS,Super Store,32.601971,-96.934326,,,2886
-10521640.1936922,3805265.06904934,245280,Brookshire Brothers 56,420 N Hill St,,Tatum,TX,75691,1783,RUSK,Super Store,32.319057,-94.517502,,,2888
-11007979.2416003,3862884.47804697,255360,7-Eleven 071,1311 E Walker St,,Breckenridge,TX,76424,3827,STEPHENS,Convenience Store,32.755417,-98.88636,,,2901
-10853300.4751846,3253595.55467034,255462,DOLLAR GENERAL  4902,1113 E Sinton St,Ste A,Sinton,TX,78387,2934,SAN PATRICIO,Other,28.036652,-97.496857,,,2908
-10978074.5962326,3421062.30740895,255603,FIESTA GROCERY MARKET INC,7208 Brook Valley Dr,,San Antonio,TX,78242,2112,BEXAR,Convenience Store,29.356211,-98.617722,,,2921
-10869556.9057031,3230961.47936257,255620,DOLLAR GENERAL 7034,14102 Northwest Blvd,,Corpus Christi,TX,78410,5121,NUECES,Other,27.857038,-97.642891,,,2922
-11337725.3844485,4187775.60965439,255661,Toot'n Totum 19,3609 S Washington St,,Amarillo,TX,79110,1302,RANDALL,Convenience Store,35.17564,-101.84852,,,2927
-10931759.6768101,3032115.17378917,255663,STRIPES 40652H,4218 S McColl Rd,,Edinburg,TX,78539,8260,HIDALGO,Convenience Store,26.266415,-98.201668,,,2928
-11249639.3845787,4078064.86329236,255688,MERRELL FOOD,135 MAIN STREET,,QUITAQUE,TX,79255,    ,BRISCO,Grocery Store,34.366085,-101.05723,,,2934
-10626685.0500674,3524708.88186888,255714,HEB 579,9595 SIX PINES RD,,THE WOODLANDS,TX,77380,    ,MONTGOMERY,Supermarket,30.164473,-95.461136,,,2939
-10796748.9493472,3614139.1153133,242767,Brookshire Brothers 0046,1701 W 4th St,,Cameron,TX,76520,    ,MILAM,Super Store,30.856594,-96.988846,,,2988
-11002608.2988085,3045948.83582147,242811,CANALES DRIVE INN GROCERY INC,1605 W Main St,,Rio Grande City,TX,78582,3908,STARR,Convenience Store,26.3778,-98.838112,,,2992
-11013591.4137287,3863133.46401068,269638,DOLLAR GENERAL  2748,3215 W Walker St,,Breckenridge,TX,76424,3908,STEPHENS,Other,32.757298,-98.936775,,,3006
-10639354.8779121,3457772.58418983,269900,Walmart SUPERCENTER  915,11210 W Airport Blvd,,Stafford,TX,77477,3000,FORT BEND,Super Store,29.643232,-95.574951,,,3032
-10567904.1287879,3596090.11064767,270005,DOLLAR GENERAL 1800,1207 N Washington Ave,,Livingston,TX,77351,2337,POLK,Other,30.717306,-94.933098,,,3044
-10963293.3716061,3029855.80646777,270165,DOLLAR GENERAL 7313,395 W Expressway 83,,LA JOYA,TX,78560,    ,HIDALGO,Other,26.248213,-98.48494,,,3058
-10554142.9246556,3412966.08728102,270590,A&M GROCERY,1228 39th St,,Galveston,TX,77550,3904,GALVESTON,Grocery Store,29.292801,-94.809479,,,3093
-10975480.7407776,3437674.24996498,246681,SNG 2742289,5439 Evers Rd,,San Antonio,TX,78238,1832,BEXAR,Convenience Store,29.486193,-98.594421,,,3104
-10929636.3688427,3024217.12433601,268627,M RIVAS FOOD STORE - PHARR,836 N Cage Blvd,,Pharr,TX,78577,    ,HIDALGO,Grocery Store,26.202774,-98.182594,,,3105
-11849376.4808122,3738315.89597187,272027,QUICKIE MART,3631 Dyer St,,El Paso,TX,79930,6623,EL PASO,Convenience Store,31.809389,-106.44476,,,3122
-11035222.2379432,3419494.76405445,267946,Walmart Supercenter 443,109 22nd St,,Hondo,TX,78861,2514,MEDINA,Super Store,29.343937,-99.131088,,,3163
-10965654.3466863,4018860.56581188,267989,UNITED SUPERMARKET 521,2522 IOWA PARK ROAD,,WICHITA FALLS,TX,76306,    ,WICHITA,Supermarket,33.92593,-98.506149,,,3165
-10665508.279079,3478065.34050207,268177,Brookshire Brothers 9,5249 Franz Rd,,Katy,TX,77493,1756,HARRIS,Super Store,29.801542,-95.809891,,,3181
-10647070.7657774,3467580.02164243,268501,Walmart SUPERCENTER  772,3506 Highway 6 S,,Houston,TX,77082,4204,HARRIS,Super Store,29.719774,-95.644264,,,3208
-11398883.1994955,3745538.5699286,234434,DOLLAR GENERAL 1645,1351 W University Blvd,,Odessa,TX,79764,7121,ECTOR,Other,31.86451,-102.39791,,,3230
-10567298.550758,3833582.25087382,234587,Brookshire Food Store 7,1300 E Broadway,,Gladewater,TX,75647,5028,GREGG,Supermarket,32.533772,-94.927658,,,3239
-10648965.5348302,3553059.38946362,234833,DOLLAR GENERAL 7295,19550 Highway 105 W,,Montgomery,TX,77356,6049,MONTGOMERY,Other,30.384417,-95.661285,,,3259
-10536754.3749157,3712437.77844414,234940,La Michoacana Met Market 16,1000 North St,,Nacogdoches,TX,75961,4406,NACOGDOCHES,Supermarket,31.611626,-94.653275,,,3265
-10964480.5939754,3435719.05546722,235244,HEB 385,300 W Olmos Dr,,San Antonio,TX,78212,1958,BEXAR,Supermarket,29.470903,-98.495605,,,3289
-11185352.3786456,3338647.31598295,235364,Max E Mart 09,2415 E Main St,,Eagle Pass,TX,78852,4420,MAVERICK,Convenience Store,28.708899,-100.47973,,,3297
-10738825.7447443,3775167.91120948,268641,HEB 238,201 S 15th St,,Corsicana,TX,75110,5195,NAVARRO,Supermarket,32.090286,-96.468513,,,3334
-10863318.784078,3229585.22140995,248922,STRIPES 40848,11201 Leopard St,,Corpus Christi,TX,78410,2615,NUECES,Convenience Store,27.846107,-97.586853,,,3362
-10875490.1232429,3538016.2120011,268783,BEST STOP FOOD MARKET,1130 Airport Blvd,,Austin,TX,78702,3146,TRAVIS,Convenience Store,30.267773,-97.69619,,,3375
-10595953.9688001,3509962.9364801,268911,WALGREENS 5671,4445 Kingwood Dr,,Kingwood,TX,77339,3701,HARRIS,Other,30.049879,-95.185074,,,3389
-10835927.176215,3646152.52235147,269006,CEFCO 24,605 N 3rd St,,Temple,TX,76501,3156,BELL,Convenience Store,31.103151,-97.34079,,,3402
-11833446.6616797,3729754.80061477,269105,7-ELEVEN 0648,1490 George Dieter Dr,,El Paso,TX,79936,7601,EL PASO,Convenience Store,31.744011,-106.30166,,,3415
-11397889.1164427,3742310.95420431,269227,Kent Kwik 202,601 N County Rd W,,Odessa,TX,79763,3744,ECTOR,Convenience Store,31.839882,-102.38898,,,3429
-10793934.347342,3879529.01149278,269550,WALGREENS  3847,5310 N Macarthur Blvd,,Irving,TX,75038,3101,DALLAS,Other,32.881073,-96.963562,,,3455
-10915515.0461576,3020063.01562688,270868,DOLLAR GENERAL  3688,209 S 8th St,,Donna,TX,78537,3136,HIDALGO,Other,26.169287,-98.05574,,,3461
-10978164.5423812,3234199.27340623,246808,STRIPES 2140,100 W RILEY,,FREER,TX,78357,    ,DUVAL,Convenience Store,27.88275,-98.61853,,,3467
-10625357.5651397,3519835.94051505,245555,WALGREENS  1267,485 Sawdust Rd,,Spring,TX,77380,2263,MONTGOMERY,Other,30.126619,-95.449211,,,3489
-11389817.3401653,3749468.36127526,248000,7-ELEVEN 0123,6001 Eastridge Rd,,Odessa,TX,79762,5056,ECTOR,Convenience Store,31.894487,-102.31647,,,3500
-11234273.9552645,3855735.6213434,245616,DOLLAR GENERAL 1912,4015 College Ave,,Snyder,TX,79549,6092,SCURRY,Other,32.701393,-100.9192,,,3509
-11394765.491531,3744830.80063756,246870,7-ELEVEN 0105,1000 N Dixie Blvd,,Odessa,TX,79761,2806,ECTOR,Convenience Store,31.85911,-102.36092,,,3516
-10721968.8568924,3582655.70346443,245635,HEB 543,1900 Texas Ave S,,College Station,TX,77840,3914,BRAZOS,Supermarket,30.613499,-96.317085,,,3520
-10627987.0428318,3486580.25474136,266653,Cox's Foodarama Inc. #22,7320 Antoine Dr,,Houston,TX,77088,7230,HARRIS,Super Store,29.867895,-95.472832,,,3541
-10953604.4570859,3438988.06596815,246987,DOLLAR GENERAL 1246,4738 Eisenhauer Rd,,San Antonio,TX,78218,3715,BEXAR,Other,29.496466,-98.397903,,,3549
-10840453.8719886,3879442.05581177,271095,ALBERTSONS 4102,1201 N Saginaw Blvd,,Saginaw,TX,76179,1145,TARRANT,Supermarket,32.880417,-97.381454,,,3555
-10747553.1928225,3465442.66510886,271176,Brookshire Brothers 34,1400 Fannin St,,Columbus,TX,78934,2536,COLORADO,Super Store,29.703098,-96.546913,,,3563
-11104892.0978536,3829313.64059869,271223,DK 43,4142 N Clack St,,Abilene,TX,79601,9258,TAYLOR,Convenience Store,32.501438,-99.756943,,,3569
-10835230.7614806,3833940.87668146,271326,DOLLAR GENERAL 3664,580 SW Wilshire Blvd,,Burleson,TX,76028,5332,JOHNSON,Other,32.536488,-97.334534,,,3578
-10612486.4716557,3486130.45369065,271346,Fiesta Mart 9,10401 Jensen Dr,,Houston,TX,77093,4863,HARRIS,Super Store,29.864391,-95.333588,,,3579
-10939016.0378175,3011390.58287031,271393,DOLLAR GENERAL 6417,225 Brady,,Hidalgo,TX,78557,2837,HIDALGO,Other,26.099346,-98.266853,,,3582
-10486137.7364105,3536789.75552135,271770,DOLLAR GENERAL 4639,319 N Main St,,Lumberton,TX,77657,7348,HARDIN,Other,30.258257,-94.198578,,,3613
-11860998.235651,3742875.99993343,271917,CIRCLE K 2701190,6996 Escondido Dr,,El Paso,TX,79912,3154,EL PASO,Convenience Store,31.844194,-106.54916,,,3622
-10852247.2814822,2993030.43307272,248071,STRIPES 9108,1991 Fm 802,,Brownsville,TX,78521,1111,CAMERON,Convenience Store,25.951138,-97.487396,,,3638
-10810646.0745779,3648504.62521425,247059,Westphalia Market,734 State Highway 320,,Lott,TX,76656,3541,FALLS,Specialty Store,31.121241,-97.113686,,,3649
-10553346.21106,3831965.92847569,245713,E-Z  Mart 4235,1501 Pine Tree Rd,,Longview,TX,75604,2350,GREGG,Convenience Store,32.52153,-94.802322,,,3659
-10606267.8309416,3465131.49887927,272326,CARNICERIA AGUASCALIENTES,2809 Broadway St,,Houston,TX,77017,1703,HARRIS,Other,29.70067,-95.277725,,,3695
-10586889.3339843,3544405.09129212,272342,Walmart SUPERCENTER  249,831 Highway 59 S,,Cleveland,TX,77327,4873,LIBERTY,Super Store,30.317329,-95.103645,,,3710
-10633704.5231984,3451797.75714781,247207,Fiesta Mart 47,1530 Independence Blvd,,Missouri City,TX,77489,3100,FORT BEND,Super Store,29.596573,-95.524193,,,3712
-10875032.3774968,3586736.38305432,272369,Walmart 1303,620 S INTERSTATE 35,,GEORGETOWN,TX,78628,    ,WILLIAMSON,Super Store,30.645042,-97.692078,,,3723
-10791659.8675061,3846464.06567181,248319,DOLLAR GENERAL 8497,1546 S Clark Rd,,Duncanville,TX,75137,3602,DALLAS,Other,32.631279,-96.94313,,,3754
-10446221.4613188,3678117.49874939,246012,DOLLAR GENERAL 4757,635 Sabine St,,Hemphill,TX,75948,    ,SABINE,Other,31.348698,-93.840004,,,3755
-10583493.8668761,3717678.74437949,248351,Brookshire Brothers 7,210 N Marcus St,,Alto,TX,75925,2148,CHEROKEE,Super Store,31.651712,-95.073143,,,3765
-10883070.9805659,3542609.26260905,246108,RANDALLS 2471,2727 Exposition Blvd,,Austin,TX,78703,1228,TRAVIS,Supermarket,30.303402,-97.76429,,,3784
-11289161.1433951,4253551.41237698,272568,Walmart Supercenter 1516,1501 Roosevelt,,Borger,TX,79007,    ,HUTCHINSON,Super Store,35.657177,-101.41226,,,3800
-10638338.3083221,3448012.01947732,272617,TARGET STORE T 1359,6000 Highway 6,,Missouri City,TX,77459,4163,FORT BEND,Super Store,29.566998,-95.565819,,,3820
-10568835.7616064,3861521.7006685,246203,Brookshire Food Store 80,1075 US Highway 271 N,,Gilmer,TX,75644,5260,UPSHUR,Supermarket,32.745121,-94.941467,,,3833
-10805259.7696963,3227167.31686511,246224,STRIPES 40789,318 E Avenue G,,Port Aransas,TX,78373,5424,NUECES,Convenience Store,27.8269,-97.0653,,,3843
-11068189.5051416,3742860.2747414,267292,ALLSUPS 154,1501 N Neches St,,Coleman,TX,76834,2603,COLEMAN,Convenience Store,31.844074,-99.427238,,,3851
-11393084.56722,3748997.53690721,247518,Larry's Specialty Meats Inc,3952 E 42nd St Ste Q,,Odessa,TX,79762,5942,ECTOR,Specialty Store,31.890896,-102.34582,,,3878
-11475937.4378277,3743172.29258369,248594,Allsups 278,101 Jim Sharp Blvd,,Kermit,TX,79745,5250,WINKLER,Convenience Store,31.846455,-103.0901,,,3892
-10628774.2942706,3489905.98656409,246437,Walgreens 4021,8808 Antoine Dr,,Houston,TX,77088,1626,HARRIS,Other,29.893799,-95.479904,,,3898
-10821269.9615012,3234008.22323225,247556,STRIPES 40840,2589 State Highway 361,,Ingleside,TX,78362,4119,SAN PATRICIO,Convenience Store,27.881233,-97.209122,,,3909
-11231868.3410685,3421317.36715572,267424,HEB 088,500 Pecan St,,Del Rio,TX,78840,5824,VAL VERDE,Supermarket,29.358208,-100.89759,,,3910
-10542552.4505937,3535360.71502375,234278,Chubby's Packing Company,2201 Highway 105 E,,Liberty,TX,77575,3496,LIBERTY,Specialty Store,30.247168,-94.70536,,,3911
-10758486.2139718,3890443.61562173,267426,Target 1489,5301 N Garland Ave,,Garland,TX,75040,2716,DALLAS,Super Store,32.963375,-96.645126,,,3915
-11035661.3933344,3419995.75970245,234319,HEB 424,609 19th St,,Hondo,TX,78861,2504,MEDINA,Supermarket,29.34786,-99.135033,,,3925
-10812695.3550839,3704088.87517209,248653,CFM SOUTH,600 S 11th St,,Waco,TX,76706,1340,MCLENNAN,Convenience Store,31.547733,-97.132095,,,3933
-11337737.6295925,4190099.10115867,267459,Toot'n Totum 34,2024 S Washington St,,Amarillo,TX,79109,2456,POTTER,Convenience Store,35.192699,-101.84863,,,3936
-10613835.9978426,3809489.87293766,247645,Walmart 1022,3820 STATE HIGHWAY 64 W,,TYLER,TX,75704,    ,SMITH,Super Store,32.351124,-95.345711,,,3937
-10776220.52205,3913904.32426397,234334,KROGER  560,7500 Preston Rd,,Frisco,TX,75034,5615,COLLIN,Super Store,33.140022,-96.804436,,,3939
-10984147.0744554,4022416.99551282,267466,LOWES 26,401 W Park Ave,,Iowa Park,TX,76367,2812,WICHITA,Supermarket,33.952435,-98.672272,,,3941
-11854099.7668066,3734269.51420854,246562,7-ELEVEN 0606,1733 Brown St,,El Paso,TX,79902,4726,EL PASO,Convenience Store,31.778494,-106.48719,,,3950
-11364474.3448913,3758388.65052692,234413,COTTONFLAT GROCERY,2800 S County Road 1200,,Midland,TX,79706,3741,MIDLAND,Convenience Store,31.962496,-102.08881,,,3979
-10936781.5216788,3023334.02664507,247759,STRIPES 9635,1021 S 23rd St,,McAllen,TX,78501,    ,HIDALGO,Convenience Store,26.195656,-98.24678,,,3990
-10875424.6673823,3023636.24394315,286269,STRIPES 40760,602 N 1st St,,Harlingen,TX,78550,4986,CAMERON,Convenience Store,26.198092,-97.695602,,,4003
-10923555.4303386,3463689.18528032,286276,Walgreens 06337,1160 S Business IH 35,,New Braunfels,TX,78130,5715,COMAL,Other,29.689415,-98.127968,,,4005
-10929579.4845829,3033613.46293021,286505,STRIPES 40700H,2626 S Sugar Rd,,Edinburg,TX,78539,5765,HIDALGO,Convenience Store,26.278484,-98.182083,,,4029
-10967872.7214989,3434917.24245758,286645,HEB 556,2118 Fredericksburg Rd,,San Antonio,TX,78201,4470,BEXAR,Supermarket,29.464632,-98.526077,,,4039
-11229238.974696,3422202.89882712,286730,LA HACIENDA Meat Market,410 E Garza St,,Del Rio,TX,78840,7202,VAL VERDE,Convenience Store,29.365141,-100.87397,,,4045
-10900398.4159054,3488389.75961872,287037,DOLLAR GENERAL 7191,905 Highway 80,,San Marcos,TX,78666,8115,HAYS,Other,29.88199,-97.919945,,,4074
-11240359.7918262,4235581.74583322,287066,Allsups 081,1025 W Wilks St,,Pampa,TX,79065,7137,GRAY,Convenience Store,35.525909,-100.97387,,,4077
-10463145.4748235,3496376.7190163,287096,Walmart SUPERCENTER  408,8585 Memorial Blvd,,Port Arthur,TX,77640,7012,JEFFERSON,Super Store,29.94418,-93.992035,,,4081
-10770902.1220579,3868917.48131535,239168,SUPER MERCADO MEXICO # 4,5535 Columbia Ave,,Dallas,TX,75214,5123,DALLAS,Supermarket,32.800983,-96.75666,,,4106
-10785921.2364362,3859387.18462669,287398,Walmart SUPERCENTER 5147,1521 S Cockrell Hill Rd,,Dallas,TX,75211,    ,DALLAS,Super Store,32.728992,-96.891579,,,4121
-10835302.8965106,3645085.0573382,285556,KERLEY'S MARKET,615 E Central Ave,,Temple,TX,76501,4320,BELL,Grocery Store,31.09494,-97.335182,,,4147
-10922219.4851296,3040193.42957566,285917,1925 DRIVE IN GRO #1,3725 W Monte Cristo Rd,,EDINBURG,TX,78542,    ,HIDALGO,Convenience Store,26.331472,-98.115967,,,4186
-10793778.9453329,3891265.58604175,286040,KROGER 448,950 E Sandy Lake Rd,,Coppell,TX,75019,3109,DALLAS,Super Store,32.96957,-96.962166,,,4201
-10639843.2365182,3465517.76648712,286138,HONG KONG FOOD MARKET 4,11205 Bellaire Blvd,,HOUSTON,TX,77072,2000,HARRIS,Super Store,29.703684,-95.579338,,,4214
-10843346.6202763,3221066.61208873,286143,FRUIT KING,1607 Morgan Ave,,Corpus Christi,TX,78404,3547,NUECES,Specialty Store,27.778423,-97.40744,,,4215
-10759283.7068038,3372540.06457027,286144,DOLLAR GENERAL  3864,604 W Main St,,Edna,TX,77957,2545,JACKSON,Other,28.975594,-96.65229,,,4216
-10835546.6861954,3862093.21147507,235837,Walgreens 5961,921 Henderson St,,Fort Worth,TX,76102,3535,TARRANT,Other,32.749439,-97.337372,,,4230
-10743978.5013341,3898350.45562418,237036,Walmart Supercenter 5210,2050 N Highway 78,,Wylie,TX,75098,6043,COLLIN,Super Store,33.022949,-96.514801,,,4253
-11851227.7239441,3736332.94097342,238161,7-ELEVEN 0601,2000 N Piedras St,,El Paso,TX,79930,    ,EL PASO,Convenience Store,31.79425,-106.46139,,,4263
-11395512.4453142,3973858.02691382,239423,Allsups 151,212 College Ave,,Levelland,TX,79336,4104,HOCKLEY,Convenience Store,33.589828,-102.36763,,,4279
-11341219.7032645,4184999.60925078,239500,Toot'n Totum 61,5300 Canyon Dr,,Amarillo,TX,79109,6352,RANDALL,Convenience Store,35.155254,-101.87991,,,4286
-10623053.4743193,3490293.38574328,239557,Walgreens 5314,9375 Veterans Memorial Dr,,Houston,TX,77088,1855,HARRIS,Other,29.896816,-95.428513,,,4289
-10627026.4669457,3460352.68409128,239934,Walgreens 04316,10800 S Post Oak Rd,,Houston,TX,77035,3102,HARRIS,Other,29.663374,-95.464203,,,4323
-11343087.6443201,3970318.21215261,240098,7-ELEVEN 402,3802 34th St,,Lubbock,TX,79410,2636,LUBBOCK,Convenience Store,33.563335,-101.89669,,,4336
-11837258.2410445,3735145.73353291,240193,7-ELEVEN 0616,3101 N Yarbrough Dr,,El Paso,TX,79925,3122,EL PASO,Convenience Store,31.785185,-106.3359,,,4343
-11579165.1148352,3543502.43853026,240199,DOLLAR GENERAL 7154,501 E SAN ANTONIO ST,,MARFA,TX,79843,    ,PRESIDIO,Other,30.310329,-104.01741,,,4345
-10844457.477475,3217708.02502876,284205,Star Market,4045 Ayers St,,Corpus Christi,TX,78415,4641,NUECES,Convenience Store,27.751726,-97.417419,,,4356
-10759693.1398909,3897178.04173046,238481,KROGER  563,4017 14th St,,Plano,TX,75074,7113,COLLIN,Super Store,33.014118,-96.655968,,,4407
-10844521.2635432,3581008.43939619,238499,HEB 593,100 Carlos Parker Blvd NW,Ste 101,Taylor,TX,76574,7059,WILLIAMSON,Supermarket,30.600763,-97.417992,,,4409
-10703458.4293244,3472573.35576775,238799,Walmart Supercenter 437,310 Overcreek Way,,SEALY,TX,77474,    ,AUSTIN,Super Store,29.758722,-96.150803,,,4441
-10616990.2356142,3623339.93848976,238946,Brookshire Brothers 23,435 S Robb St,,Trinity,TX,75862,7618,TRINITY,Super Store,30.927521,-95.374046,,,4451
-10853537.363061,2988668.15006914,238998,DOLLAR GENERAL 7731,1552 Palm Blvd,,Brownsville,TX,78520,7264,CAMERON,Other,25.915897,-97.498985,,,4458
-10893289.7758623,3189454.07431201,237179,DOLLAR GENERAL  9653,1102 N 14th St,,Kingsville,TX,78363,4069,KLEBERG,Other,27.52688,-97.856087,,,4488
-10636055.368205,3478822.50033401,287650,GET N SAVE,1959 Gessner Dr,,Houston,TX,77080,6320,HARRIS,Convenience Store,29.807444,-95.545311,,,4500
-10601231.5145391,3473731.83827281,287936,DOLLAR GENERAL  6550,11121 Market St,,Jacinto City,TX,77029,    ,HARRIS,Other,29.767756,-95.232483,,,4529
-10796088.1568499,3826144.92568141,287968,DOLLAR GENERAL 1782,1000 E Main St,Ste 204,Midlothian,TX,76065,3331,ELLIS,Other,32.477428,-96.98291,,,4537
-11847420.597359,3746404.07084016,283279,Food King 97,9120 Dyer St,,El Paso,TX,79924,6402,EL PASO,Supermarket,31.871113,-106.42719,,,4574
-10756889.5585153,3879551.28073412,284355,Fiesta Mart 54,2940 S 1st St,,Garland,TX,75041,3437,DALLAS,Super Store,32.881241,-96.630783,,,4575
-10465321.3255906,3519246.35564917,237190,Dollar General 21752,320 S Main St,,Vidor,TX,77662,5743,ORANGE,Other,30.122038,-94.011581,,,4577
-11367128.2015518,3763370.74691186,237247,United Supermarket 672,1002 Andrews Hwy,,Midland,TX,79701,3825,MIDLAND,Supermarket,32.000458,-102.11265,,,4598
-10768328.7493892,3900526.98812739,237331,KROGER 581,2925 Custer Rd,,Plano,TX,75075,2065,COLLIN,Super Store,33.039341,-96.733543,,,4618
-10925999.672398,3026576.61729609,284491,Alejandro's Bakery,2711 N Raul Longoria Rd,,San Juan,TX,78589,9797,HIDALGO,Convenience Store,26.22179,-98.149925,,,4641
-10485082.0936793,3520670.36375356,284533,DOLLAR GENERAL 6628,7335 Highway 105,,Beaumont,TX,77713,4525,JEFFERSON,Other,30.133102,-94.189095,,,4646
-11326811.6215712,4055013.35541865,288628,Walmart Supercenter 927,1501 N Interstate 27,,Plainview,TX,79072,3916,HALE,Super Store,34.194981,-101.75048,,,4690
-10826875.3431406,3880658.16824579,236330,Target Store 1765,8000 Denton Hwy,,Watauga,TX,76148,2464,TARRANT,Super Store,32.889591,-97.259476,,,4699
-10846996.1184625,2985643.13212808,1604427,Dollar General 25983,5220 Southmost Rd,,Brownsville,TX,78521,8057,CAMERON,Other,25.891453,-97.440224,,,4708
-10572510.7519559,3915833.64378041,283561,Brookshire Food Store 16,308 W Ferguson Rd,,Mt Pleasant,TX,75455,4328,TITUS,Supermarket,33.154533,-94.97448,,,4718
-10615712.9557769,3481591.73563861,236421,Walgreens 12015,747 E Crosstimbers St,,Houston,TX,77022,3725,HARRIS,Other,29.829027,-95.362572,,,4724
-10818643.0441575,3848376.25594492,288794,Albertsons 3042,6220 US 287 Hwy,,Arlington,TX,76001,2800,TARRANT,Supermarket,32.645744,-97.185524,,,4736
-10879239.8089708,3648375.89157252,288814,Killeen Nutritional Center,107 Santa Fe Plaza Dr,,Killeen,TX,76541,5260,BELL,Grocery Store,31.120251,-97.729874,,,4739
-10739178.2935716,3775711.76777317,289127,DOLLAR GENERAL 3257,615 W 2nd Ave,,Corsicana,TX,75110,2943,NAVARRO,Other,32.094425,-96.47168,,,4769
-10616659.0601291,3372041.26358751,225928,DOLLAR GENERAL 4687,1224 N Brazosport Blvd,,Freeport,TX,77541,3506,BRAZORIA,Other,28.971674,-95.371071,,,4782
-10717865.0638644,3860741.1130147,225989,La Azteca Meat Market,300 N Rockwall St,,Terrell,TX,75160,2619,KAUFMAN,Super Store,32.739223,-96.28022,,,4786
-11342142.5418432,3968370.19413866,283578,CVS/ PHARMACY INC 7277,3401 50th St,,Lubbock,TX,79413,4001,LUBBOCK,Other,33.548752,-101.8882,,,4796
-10615380.8897359,3475461.03633745,236446,Walgreens 12069,2221 Fulton St,,Houston,TX,77009,8132,HARRIS,Other,29.781239,-95.359589,,,4802
-10946233.437003,3034979.42662952,284743,LA REYNERA BAKERY,1300 W 5 MILE LINE,,MISSION,TX,78574,    ,HIDALGO,Specialty Store,26.289486,-98.331688,,,4804
-10844133.9830347,3807759.82402865,236467,WALGREENS 5434,1621 W Henderson St,,Cleburne,TX,76033,4122,JOHNSON,Other,32.337994,-97.414513,,,4806
-10739127.3092449,3722007.12760874,236478,DOLLAR GENERAL 985,1003 E Milam St,,Mexia,TX,76667,2528,LIMESTONE,Other,31.684805,-96.471222,,,4814
-11076771.6812843,3190519.86733624,284793,STRIPES 9664,3919 San Bernardo Ave,,Laredo,TX,78041,4440,WEBB,Convenience Store,27.53537,-99.504333,,,4820
-10551855.7543977,3833424.59627364,283682,DOLLAR GENERAL 1963,2421 Gilmer Rd,,Longview,TX,75604,2135,GREGG,Other,32.532578,-94.788933,,,4825
-11395501.3133652,3973654.2372926,236563,United Supermarket 509,511 College Ave,,Levelland,TX,79336,4805,HOCKLEY,Supermarket,33.588303,-102.36753,,,4835
-10606250.910379,3464051.44645617,283697,LA MORELIANA MEAT MARKET #7,3401 Broadway St,,Houston,TX,77017,2215,HARRIS,Grocery Store,29.692242,-95.277573,,,4838
-10675487.5148312,3928152.59916292,236564,DOLLAR GENERAL 2701,1203 Live Oak St,,Commerce,TX,75428,3013,HUNT,Other,33.247131,-95.899536,,,4839
-10960536.5444166,3429858.05177888,283749,Walgreens 4160,2200 E Houston St,,San Antonio,TX,78202,3007,BEXAR,Other,29.425055,-98.460175,,,4850
-10846618.1887913,3855480.83866337,283783,QUICK MART 3,7020 W Vickery Blvd,,Fort Worth,TX,76116,9035,TARRANT,Convenience Store,32.699467,-97.436829,,,4870
-10793412.9268471,3876676.90913806,236670,TOM THUMB  3621,4010 N Macarthur Blvd,,Irving,TX,75038,6413,DALLAS,Supermarket,32.859554,-96.958878,,,4883
-11364378.6101292,3765632.2821457,237968,7-ELEVEN 0805,715 W Scharbauer Dr,,Midland,TX,79705,8914,MIDLAND,Convenience Store,32.017685,-102.08795,,,4952
-10975599.7413133,3436999.29729979,237993,HEB 262,5601 BANDERA RD,,SAN ANTONIO,TX,78238,    ,BEXAR,Supermarket,29.480915,-98.59549,,,4974
-10927752.6204195,3395138.29021433,236946,DOLLAR GENERAL 2856,540 10th St,Ste 110,Floresville,TX,78114,3134,WILSON,Other,29.153034,-98.165672,,,4992
-10835678.2658336,3833192.87158228,230426,Walgreens 5377,833 SW Wilshire Blvd,,Burleson,TX,76028,5712,JOHNSON,Other,32.530823,-97.338554,,,5002
-10932324.4005869,3028439.94128161,230428,VALLEY  2741519,3912 N McColl Rd,,McAllen,TX,78501,9160,HIDALGO,Convenience Store,26.236805,-98.206741,,,5003
-10659130.0062151,3473671.82133786,1600727,Southwest Farmers Market,920 S Mason Rd,Ste G,Katy,TX,77450,3868,HARRIS,Grocery Store,29.767288,-95.752594,,,5020
-10856470.075046,2990363.46881395,230766,A & V Lopez Supermarket,384 US Highway 281,,Brownsville,TX,78520,4424,CAMERON,Supermarket,25.929594,-97.52533,,,5037
-11332952.0046833,4189966.15361637,230830,Toot'n Totum 14,1735 S Nelson St,,Amarillo,TX,79103,4114,POTTER,Convenience Store,35.191723,-101.80564,,,5043
-10751634.0540355,3861751.99580859,231026,TOM THUMB  1784,1501 Pioneer Rd,,Mesquite,TX,75149,6032,DALLAS,Supermarket,32.746861,-96.583572,,,5057
-11162094.3974342,4224531.44628434,231043,Velasquez Thriftway,300 N Oklahoma Ave,,Wheeler,TX,79096,    ,WHEELER,Supermarket,35.44508,-100.2708,,,5060
-10977461.3371578,3424344.36437132,231219,LACKLAND AFB COMMISSARY 622,2250 Foulois St,Bldg 8400,Lackland AFB,TX,78236,1039,BEXAR,Supermarket,29.381905,-98.612213,,,5067
-10835166.1961759,3846990.03588913,231289,DOLLAR GENERAL 4483,1000 Sycamore School Rd,,Fort Worth,TX,76134,    ,TARRANT,Other,32.635258,-97.333954,,,5072
-11447867.1150292,3890566.60898108,231473,THRIFTWAY FOODS,713 W Broadway St,,Denver City,TX,79323,3000,YOAKUM,Super Store,32.964302,-102.83794,,,5085
-10672589.7571664,3854709.24843629,231571,DOLLAR GENERAL 6448,855 E Pine St,,Edgewood,TX,75117,3348,VAN ZANDT,Other,32.693634,-95.873505,,,5091
-10473922.2034078,3956331.64760124,231780,SUPER 1 FOODS 618,2610 Richmond Rd,,Texarkana,TX,75503,2327,BOWIE,Supermarket,33.458576,-94.088844,,,5102
-10905005.0390734,3009847.24778016,260037,STRIPES 9127,435 W HWY 281,,PROGRESO,TX,78579,    ,HIDALGO,Convenience Store,26.086895,-97.961327,,,5109
-10984755.99207,3428938.2597442,262102,SNG 2742113,9685 Marbach Rd,,San Antonio,TX,78245,1821,BEXAR,Convenience Store,29.417858,-98.677742,,,5119
-10605644.4417931,3447053.82451274,231874,KROGER  264,3245 FM 518,,Pearland,TX,77581,    ,BRAZORIA,Super Store,29.559511,-95.272125,,,5131
-11008567.0085117,3862929.3507269,229458,Allsups 102383,810 E Walker St,,Breckenridge,TX,76424,3746,STEPHENS,Convenience Store,32.755756,-98.89164,,,5137
-11183319.6847437,3695908.20436591,229657,Walmart SUPERCENTER 1249,610 W 29th St,,San Angelo,TX,76903,2828,TOM GREEN,Super Store,31.485085,-100.46147,,,5160
-10951482.9302304,3028102.8746426,229761,HEB 448,2206 W Palma Vista Dr,,Palmview,TX,78572,1857,HIDALGO,Supermarket,26.234089,-98.378845,,,5175
-10455709.889436,3494555.4227499,229793,DOLLAR GENERAL 4934,3345 N Twin City Hwy,,Port Arthur,TX,77642,2101,JEFFERSON,Other,29.930002,-93.92524,,,5177
-10551849.7431452,3833454.70101028,230012,Walmart Supercenter 399,2440 Gilmer Rd,,Longview,TX,75604,2134,GREGG,Super Store,32.532806,-94.788879,,,5196
-10952301.6850852,3426709.27717306,230094,Walmart 3279,2100 SE LOOP 410,Ste A,SAN ANTONIO,TX,78220,    ,BEXAR,Super Store,29.400415,-98.3862,,,5206
-10638883.5511881,3459156.46394867,230186,DOLLAR GENERAL  1654,11550 S Wilcrest Dr,,Houston,TX,77099,4753,HARRIS,Other,29.654036,-95.570717,,,5216
-10846066.1554364,3218550.95961271,262112,BIG DIAMOND INC 274971,4101 Greenwood Dr,,Corpus Christi,TX,78416,1841,NUECES,Convenience Store,27.758427,-97.43187,,,5239
-10934433.2370205,3027454.8253403,227374,STRIPES 9667,2800 N 10th St,Ste A,McAllen,TX,78501,1912,HIDALGO,Convenience Store,26.228867,-98.225685,,,5254
-11370082.6208374,3764505.46539424,262129,7-ELEVEN 0807,2600 N Midland Dr,,Midland,TX,79707,    ,MIDLAND,Convenience Store,32.009102,-102.13919,,,5264
-10726320.669746,3586848.95275223,232033,Readfield's Meat & Deli,2701 S Texas Ave,,Bryan,TX,77802,5324,BRAZOS,Supermarket,30.645912,-96.356178,,,5294
-10843360.2012542,2985272.78250518,232044,VILLAREAL GROCERY,2488 S Indiana Ave,,Brownsville,TX,78521,6101,CAMERON,Convenience Store,25.88846,-97.407562,,,5295
-11367118.1827976,3760873.27283919,232065,7-ELEVEN 0803,809 S Midkiff Rd,,Midland,TX,79701,6727,MIDLAND,Convenience Store,31.98143,-102.11256,,,5299
-10886667.7133135,3612933.97959891,258253,THE STORE OF FLORENCE,603 N PATTERSON HWY 195,,FLORENCE,TX,76527,    ,WILLIAMSON,Convenience Store,30.8473,-97.7966,,,5306
-10841312.5905406,3859488.68085823,258523,HEB Central Market 545,4651 West Fwy,Ste 100,Fort Worth,TX,76107,5489,TARRANT,Supermarket,32.729759,-97.389168,,,5332
-10755959.5954892,3887432.07404504,258650,Walgreens 4340,2614 Lavon Dr,,Garland,TX,75040,8762,DALLAS,Other,32.940674,-96.622429,,,5339
-10853715.6968853,2992886.5748919,258692,STRIPES 7085,1250 Fm 802,,Brownsville,TX,78521,0966,CAMERON,Convenience Store,25.949976,-97.500587,,,5342
-10972636.5277879,3428342.73649899,258771,CARDENAS GROCERY INC,2103 Castroville Rd,,San Antonio,TX,78237,3517,BEXAR,Convenience Store,29.413198,-98.568871,,,5349
-10941704.0695617,3455087.8659584,261145,E-Z  Mart 4386,19501 FM 3009,Suite 7,Garden Ridge,TX,78266,    ,COMAL,Convenience Store,29.622269,-98.291,,,5380
-10659169.9699123,3531133.56011767,228491,DOLLAR GENERAL 0944,219 Smith Rd,,Magnolia,TX,77354,5288,MONTGOMERY,Other,30.214359,-95.752953,,,5381
-10885597.5990485,3058891.65087052,262234,HEB 429,405 W Hidalgo Ave,,Raymondville,TX,78580,3532,WILLACY,Supermarket,26.481915,-97.786987,,,5413
-10778624.0211758,3872681.89548537,226361,CVS/PHARMACY 7742,5659 Lemmon Ave,,Dallas,TX,75209,6225,DALLAS,Other,32.829403,-96.826027,,,5418
-11112847.4339437,3334813.18147489,227679,DOLLAR GENERAL 3636,206 E Zavala St,,Crystal City,TX,78839,3512,ZAVALA,Other,28.678686,-99.828407,,,5447
-10435895.6879918,3516947.22306938,227796,Walgreens 3081,1408 N 16th St,,Orange,TX,77630,3612,ORANGE,Other,30.104172,-93.747246,,,5460
-10651484.5835874,3488141.71587273,227876,KROGER CO  352,18030 Fm 529 Rd,,Cypress,TX,77433,1168,HARRIS,Super Store,29.880058,-95.683914,,,5466
-10842589.0911415,3850042.15593182,227928,DOLLAR GENERAL 4295,6267 Granbury Rd,,Fort Worth,TX,76133,3401,TARRANT,Other,32.658344,-97.400635,,,5471
-10763170.0928664,3860075.31178121,228350,SUPER MERCADO MEXICO # 3,7828 Lake June Rd,,Dallas,TX,75217,1601,DALLAS,Supermarket,32.734192,-96.687202,,,5505
-11340026.3583232,3964493.83765394,261268,WALGREENS 5996,2417 82nd St,,Lubbock,TX,79423,2300,LUBBOCK,Other,33.519726,-101.86919,,,5517
-11342862.7789486,4190527.37746177,228564,DOLLAR GENERAL 8372,5131 Plains Blvd,,Amarillo,TX,79106,4515,POTTER,Other,35.195843,-101.89467,,,5519
-10662007.3924131,3472489.49358801,262271,KROGER 733,1550 W Grand Pkwy S,,Katy,TX,77494,8257,FORT BEND,Super Store,29.758068,-95.778442,,,5523
-11346797.9229482,3968384.48615431,260209,E Z MART 4257,5444 50th St,Ste F,Lubbock,TX,79414,1755,LUBBOCK,Convenience Store,33.548859,-101.93002,,,5527
-10612616.3815015,3491009.27687193,226635,La Michoacana Meat Market 27,3910 Aldine Mail Rd,,Houston,TX,77039,4646,HARRIS,Super Store,29.902391,-95.334755,,,5554
-10628701.2686847,3492088.26148269,226938,KROGER 366,12434 State Highway 249,,Houston,TX,77086,3323,HARRIS,Super Store,29.910793,-95.479248,,,5579
-10971012.5990562,3432787.45563023,226971,CULEBRA MEAT MARKET 01,2800 Culebra Rd,,San Antonio,TX,78228,6218,BEXAR,Supermarket,29.447973,-98.554283,,,5581
-10777967.4588191,3833188.25033818,227051,CVS/ PHARMACY INC 7675,105 Harris Ave,,Red Oak,TX,75154,4216,ELLIS,Other,32.530788,-96.820129,,,5591
-11445224.3903178,4106099.61303283,227093,Allsups 225,1411 W US Highway 60,,Friona,TX,79035,1646,PARMER,Convenience Store,34.573708,-102.8142,,,5598
-11098212.3718086,3826304.59495806,261306,7-Eleven 022,1657 State Highway 351,,Abilene,TX,79601,4745,TAYLOR,Convenience Store,32.478638,-99.696938,,,5631
-10561211.6010014,3814480.35623005,261319,DOLLAR GENERAL 1716,106 Midtown Plz,,Kilgore,TX,75662,5864,GREGG,Other,32.388988,-94.872978,,,5641
-10848614.0359417,2988643.8919911,259314,STRIPES 40763H,105 Billy Mitchell Blvd,,Brownsville,TX,78521,5002,CAMERON,Convenience Store,25.915701,-97.454758,,,5646
-10876075.329806,3546830.06489506,261356,Muchos,7509 N Interstate 35,,Austin,TX,78752,1627,TRAVIS,Convenience Store,30.336132,-97.701447,,,5664
-10874730.8129962,3544643.27342281,228675,BERKMAN FOOD MART,6615 Berkman Dr,,Austin,TX,78723,1216,TRAVIS,Convenience Store,30.319176,-97.689369,,,5667
-10854613.4885785,3253596.94199091,262402,STRIPES 21286,204 E Sinton St,,Sinton,TX,78387,2655,SAN PATRICIO,Convenience Store,28.036663,-97.508652,,,5670
-11234262.8233155,3854486.76255722,260394,Walmart Supecenter 1272,5110 College Ave,,Snyder,TX,79549,6112,SCURRY,Super Store,32.691952,-100.9191,,,5689
-10621776.9737184,3397500.97245284,260397,HEB 017,1239 E Mulberry St,,Angleton,TX,77515,3908,BRAZORIA,Supermarket,29.171568,-95.417046,,,5694
-10808622.9541522,3866538.25598189,260425,TOM THUMB  3658,2755 N Collins St,,Arlington,TX,76006,3793,TARRANT,Supermarket,32.783016,-97.095512,,,5704
-10765336.7041157,3921744.44595224,262552,Tom Thumb 0296,6800 W Virginia Pkwy,,McKinney,TX,75071,5516,COLLIN,Supermarket,33.198975,-96.706665,,,5715
-11177543.3163665,3826161.55229936,262656,7-Eleven 122,1110 Elm St,,Sweetwater,TX,79556,3235,NOLAN,Convenience Store,32.477554,-100.40958,,,5725
-10556901.4216374,3673474.8567935,262737,DOLLAR GENERAL  6593,6975 State Highway 94,,Lufkin,TX,75904,7302,ANGELINA,Other,31.313074,-94.834259,,,5739
-11847211.3167163,3734949.68852216,262772,Walgreens 15036,5401 Montana Ave,,El Paso,TX,79903,4909,EL PASO,Other,31.783688,-106.42531,,,5741
-11108414.9144593,3819096.80724691,262952,7-Eleven 079,5150 US Highway 277 S,,Abilene,TX,79605,4545,TAYLOR,Convenience Store,32.424,-99.788589,,,5757
-10506793.5132051,3479441.01325062,262986,Market Basket 11,1328 Highway 124,,Winnie,TX,77665,    ,CHAMBERS,Supermarket,29.812265,-94.384132,,,5762
-11408698.2389987,3742900.76715236,228699,Kent Kwik 206,9413 W University Blvd,,Odessa,TX,79764,8915,ECTOR,Convenience Store,31.844383,-102.48608,,,5766
-10956109.9248652,3514761.33502917,260442,DOLLAR GENERAL  8792,1010 US Highway 281 S,,Blanco,TX,78606,5820,BLANCO,Other,30.087183,-98.42041,,,5777
-11099452.248297,3817707.80710597,260508,7-Eleven 042,3151 Oldham Ln,,Abilene,TX,79602,7315,TAYLOR,Convenience Store,32.413467,-99.708076,,,5811
-10815990.6346503,3871898.0510246,261606,MID-CITIES AFRICAN MARKET,504 E Pipeline Rd,,Hurst,TX,76053,5936,TARRANT,Grocery Store,32.823486,-97.161697,,,5824
-10954443.5834075,3426441.20654268,259705,WALGREENS 02755,3065 Rigsby Ave,,San Antonio,TX,78222,1115,BEXAR,Other,29.398317,-98.405441,,,5852
-10888570.1634111,3021534.37660303,228964,Partida's Country Store,25957 N Kansas City Rd,,La Feria,TX,78559,4654,CAMERON,Convenience Store,26.181149,-97.81369,,,5854
-10731151.4903685,3525287.64697383,260601,Brookshire Brothers 11,303 N Austin Pkwy,,Brenham,TX,77833,3134,WASHINGTON,Super Store,30.168968,-96.399574,,,5859
-10653773.4236376,3944930.10830904,259796,DOLLAR GENERAL  4467,1701 W Dallas Ave,,Cooper,TX,75432,1320,DELTA,Other,33.373085,-95.704475,,,5885
-10931145.6384989,3014267.8397953,261770,JRS XPRESS,7501 S Cage Blvd,,PHARR,TX,78577,7067,HIDALGO,Convenience Store,26.122555,-98.196152,,,5892
-10654471.6194838,3852043.79409099,259822,BROOKSHIRE  33,205 W Frank St,,Grand Saline,TX,75140,1757,VAN ZANDT,Supermarket,32.673481,-95.710747,,,5897
-10838261.8798954,3849540.77466889,229137,WALGREENS 4858,6205 Westcreek Dr,,Fort Worth,TX,76133,4319,TARRANT,Other,32.654552,-97.361763,,,5913
-10568649.7467373,3861737.30443258,262000,Walmart Supercenter 146,1102 US Highway 271 N,,Gilmer,TX,75644,5237,UPSHUR,Super Store,32.74675,-94.939796,,,5970
-10754762.0204073,3985078.03072609,229392,Walmart Supercenter 947,401 E US Highway 82,,Sherman,TX,75092,2566,GRAYSON,Super Store,33.673748,-96.611671,,,5986
-10765964.3234048,3906316.44853432,261023,TOM THUMB  1788,7801 Alma Dr,,Plano,TX,75025,3482,COLLIN,Supermarket,33.082928,-96.712303,,,5991
-10726855.7825383,3593223.86221959,275007,Bryan Food Exchange,2907 Highway 21 E,,Bryan,TX,77803,2927,BRAZOS,Convenience Store,30.695168,-96.360985,,,6008
-10622943.8246209,3384947.07992504,275031,PO-BOY'S SEAFOOD MARKET,2605 HWY 288,,ANGLETON,TX,77515,    ,BRAZORIA,Specialty Store,29.073051,-95.427528,,,6009
-10620460.5094202,3492760.97136058,275208,Fiesta Mart 28,11006 Airline Dr,,Houston,TX,77037,1112,HARRIS,Super Store,29.916031,-95.40522,,,6024
-10846851.737083,3215979.54869702,275406,Walmart 470,1821 S Padre Island Dr,,Corpus Christi,TX,78416,1398,NUECES,Super Store,27.737984,-97.438927,,,6044
-11335811.8024018,4197985.2306081,275455,Toot'n Totum 43,3522 River Rd,,Amarillo,TX,79107,1812,POTTER,Convenience Store,35.250572,-101.83133,,,6048
-10746172.2745392,3548977.63153023,275691,Brookshire Brothers 0065,16800 State Highway 36 S,,Somerville,TX,77879,4441,BURLESON,Super Store,30.352781,-96.534508,,,6068
-10757314.2423727,3873221.0920955,276041,SWIFT T # 11,2333 Oates Dr,,Mesquite,TX,75150,1149,DALLAS,Convenience Store,32.833473,-96.634598,,,6090
-10652761.0841883,3553417.74820134,277276,BROOKSHIRE BROTHERS 73,21005 Eva St,,Montgomery,TX,77356,1897,MONTGOMERY,Super Store,30.387194,-95.695381,,,6109
-10647356.1889518,3832277.63631254,278407,DOLLAR GENERAL 7084,719 W Main St,,Van,TX,75790,2895,VAN ZANDT,Other,32.523891,-95.646828,,,6111
-10741569.8815118,3635432.52842396,280655,DOLLAR GENERAL 6520,752 W US Highway 79,,Franklin,TX,77856,1716,ROBERTSON,Other,31.02066,-96.493164,,,6133
-10658939.7612053,3877405.40908054,249458,DOLLAR GENERAL 4466,875 E US HIGHWAY 69,,EMORY,TX,75440,    ,RAINS,Other,32.865051,-95.750885,,,6134
-10651554.2695886,3447513.01206171,249574,HEB 563,19900 Southwest Fwy,,Sugar Land,TX,77479,6505,FORT BEND,Supermarket,29.563099,-95.68454,,,6156
-11193016.7255867,4126500.20224158,249603,THRIFTWAY,123 S 15th St,,Memphis,TX,79245,3113,HALL,Supermarket,34.724468,-100.54858,,,6159
-10936414.6126371,3026264.65968633,249763,Walgreens 2942,2300 Pecan Blvd,,McAllen,TX,78501,7332,HIDALGO,Other,26.219276,-98.243484,,,6170
-10837372.6598029,3645908.75622575,249784,HEB 071,1314 W Adams Ave,,Temple,TX,76504,2448,BELL,Supermarket,31.101276,-97.353775,,,6172
-10642625.5558711,3451174.29817423,249792,Walgreens 1157,3316 Highway 6,,Sugar Land,TX,77478,4406,FORT BEND,Other,29.591703,-95.604332,,,6173
-10855916.2605793,2996327.18021335,249833,Walmart SUPERCENTER #456 0456,3500 W Alton Gloor Blvd,Ste B,Brownsville,TX,78520,9505,CAMERON,Super Store,25.977764,-97.520355,,,6181
-10828663.1341628,3010018.91415362,307273,DOLLAR GENERAL 4337,1740 State Highway 100,,Port Isabel,TX,78578,2803,CAMERON,Other,26.08828,-97.275536,,,6191
-10762551.8244145,3916430.67933107,307731,Walmart Supercenter 5211,5001 McKinney Ranch Pkwy,,McKinney,TX,75070,8601,COLLIN,Super Store,33.159023,-96.681648,,,6222
-10862996.8481107,3736047.42430487,307849,DOLLAR GENERAL  7407,926 N Avenue G,,Clifton,TX,76634,1014,BOSQUE,Other,31.79207,-97.583961,,,6228
-10636125.0542062,3498612.78004672,307854,Fiesta Mart 20,8320 Fm 1960 Rd W,,Houston,TX,77070,5608,HARRIS,Super Store,29.961584,-95.545937,,,6229
-10659319.3606689,3469421.3347092,307859,KROGER 336,22150 Westheimer Pkwy,,Katy,TX,77450,8296,FORT BEND,Super Store,29.734138,-95.754295,,,6230
-10971769.3489546,3430655.33427896,307878,M & I Grocery,5106 W Commerce St,,San Antonio,TX,78237,1554,BEXAR,Other,29.431293,-98.561081,,,6232
-10593733.0336392,3478636.9907602,279603,Walmart 3500,5655 E SAM HOUSTON PKWY N,,HOUSTON,TX,77015,    ,HARRIS,Super Store,29.805998,-95.165123,,,6255
-10641767.727875,3461993.6001512,276306,La Michoacana Meat Market 28,12385 Bissonnet St,,Houston,TX,77099,1270,HARRIS,Supermarket,29.676182,-95.596626,,,6270
-10636818.9085923,3463434.69873392,276378,IN N OUT MINI MART #2,10239 Club Creek Dr,,Houston,TX,77036,7105,HARRIS,Convenience Store,29.687429,-95.55217,,,6276
-10595473.2912388,3474032.44013199,276503,Walmart  SUPERCENTER 1137,13750 East Fwy,,Houston,TX,77015,5929,HARRIS,Super Store,29.7701,-95.180756,,,6286
-11014856.8937,3729405.95341996,276552,ALLSUPS 108,910 Early Blvd,,Early,TX,76802,2205,BROWN,Convenience Store,31.741346,-98.948143,,,6288
-10882173.3001922,3548933.12602195,276861,HEB 096,7025 Village Center Dr,,Austin,TX,78731,3023,TRAVIS,Supermarket,30.352436,-97.756226,,,6314
-10806210.1041892,3865567.47624274,276933,WALGREENS  3846,2410 Ballpark Way,,Arlington,TX,76006,    ,TARRANT,Other,32.775684,-97.073837,,,6320
-10463501.3632356,3621059.9504064,276979,Brookshire Brothers 45,1125 S Wheeler St,,Jasper,TX,75951,5117,JASPER,Super Store,30.90995,-93.995232,,,6325
-10482538.4433146,3519106.46035192,276992,Walmart SUPERCENTER  651,4145 Dowlen Rd,,Beaumont,TX,77706,6852,JEFFERSON,Super Store,30.120951,-94.166245,,,6326
-10762702.2170466,3886050.79915829,277000,Walgreens 04267,1902 N Jupiter Rd,,Garland,TX,75042,4744,DALLAS,Other,32.93026,-96.682999,,,6327
-10609749.1253771,3468920.60067537,277111,Fiesta Mart 3,800 S Wayside Dr,,Houston,TX,77023,2310,HARRIS,Super Store,29.730232,-95.308998,,,6337
-10629326.3276255,3478984.91963183,277155,La Michoacana Meat Market 4,2030 Wirt Rd,,Houston,TX,77055,1602,HARRIS,Supermarket,29.80871,-95.484863,,,6338
-10958273.0852103,3442766.8131329,279609,CVS/ PHARMACY INC 7301,3027 Nacogdoches Rd,,San Antonio,TX,78217,4541,BEXAR,Other,29.526007,-98.439842,,,6358
-11406298.1907772,3743569.63229666,278497,LOWES 35,7528 W University Blvd,Ste B,Odessa,TX,79764,8811,ECTOR,Super Store,31.849487,-102.46452,,,6360
-10841807.7396356,3811294.6355642,278504,DOLLAR GENERAL 3901,1322 N Main St,,Cleburne,TX,76033,3864,JOHNSON,Other,32.364819,-97.393616,,,6365
-10851092.2304457,2989794.46238166,278553,Walmart 1000,2721 BOCA CHICA BLVD,,BROWNSVILLE,TX,78521,    ,CAMERON,Super Store,25.924997,-97.47702,,,6390
-10746811.8050138,3464354.25694997,279679,Walmart 503,2103 Milam St,,Columbus,TX,78934,3013,COLORADO,Super Store,29.694605,-96.540253,,,6394
-10881771.5481499,3529586.01314322,279786,TERI METRO MART,2008 Teri Rd,,Austin,TX,78744,1910,TRAVIS,Convenience Store,30.202345,-97.752617,,,6411
-10571984.9900009,3917306.20945948,279937,DOLLAR GENERAL 4328,1124 N Jefferson Ave,,Mount Pleasant,TX,75455,3264,TITUS,Other,33.165607,-94.969757,,,6428
-10609115.606155,3484072.53291146,280044,Walgreens 2135,6610 Tidwell Rd,,Houston,TX,77016,4824,HARRIS,Other,29.848358,-95.303307,,,6435
-10995232.9372655,3944676.30831382,280271,DOLLAR GENERAL 3597,1318 W Main St,,Olney,TX,76374,1655,YOUNG,Other,33.371181,-98.771858,,,6451
-11397531.7808772,4139590.42331577,280325,Allsups 305,1303 E 1st St,,Hereford,TX,79045,5715,DEAF SMITH,Convenience Store,34.82106,-102.38577,,,6456
-10772599.0763756,3870075.02306772,280346,Fiesta Mart 40,5334 Ross Ave,,Dallas,TX,75206,7453,DALLAS,Super Store,32.809723,-96.771904,,,6459
-11109430.7048127,3790851.22992793,280418,ALLSUPS 228,601 Graham St,,Tuscola,TX,79562,2105,TAYLOR,Convenience Store,32.209568,-99.797714,,,6462
-10628138.2147002,3488881.49615951,280496,DOLLAR GENERAL 8942,8105 Antoine Dr,,Houston,TX,77088,2801,HARRIS,Other,29.88582,-95.47419,,,6469
-10543892.7372628,3676658.20823242,280523,Walgreens 05792,102 N Timberland Dr,,Lufkin,TX,75901,4058,ANGELINA,Other,31.337502,-94.7174,,,6472
-11322343.2572107,4056384.72762298,280837,DOLLAR GENERAL 7593,600 W 24th St,,Plainview,TX,79072,3006,HALE,Other,34.20517,-101.71034,,,6482
-10844095.6891299,3807776.82024163,280983,KROGER 415,1617 W Henderson St,,Cleburne,TX,76033,4122,JOHNSON,Super Store,32.338123,-97.414169,,,6507
-11365472.8807237,3762472.39459759,278666,7-ELEVEN 0804,2111 W Wall St,,Midland,TX,79701,6425,MIDLAND,Convenience Store,31.993614,-102.09778,,,6513
-10751048.0682359,3883152.0300409,309499,Walmart 3225,2501 LAKEVIEW PKWY,,ROWLETT,TX,75088,    ,DALLAS,Super Store,32.908401,-96.578308,,,6564
-10577397.5662823,3443885.13266496,278787,Walmart 3298,255 FM 518 RD,,KEMAH,TX,77565,    ,GALVESTON,Super Store,29.534748,-95.018379,,,6566
-10970846.1764174,3438358.70167987,309511,Target T 1523,4522 Fredericksburg Rd,,Balcones Hts,TX,78201,6521,BEXAR,Super Store,29.491545,-98.552788,,,6568
-10635361.5138188,3466859.79690716,281200,La Michoacana Meat Market 10,6036 S Gessner Dr,,Houston,TX,77036,2610,HARRIS,Super Store,29.714155,-95.539078,,,6586
-10847460.6546976,3442192.65801525,248996,DOLLAR GENERAL 1564,1600 E Sarah Dewitt Dr,,Gonzales,TX,78629,2604,GONZALES,Other,29.521519,-97.444397,,,6603
-10630110.2394797,3465760.50329025,277936,Fiesta Mart 7,6200 Bellaire Blvd,,Houston,TX,77081,4902,HARRIS,Super Store,29.705578,-95.491905,,,6627
-10586459.6407498,3460447.74082823,278987,Walmart SUPERCENTER 5116,9025 Spencer Hwy,,La Porte,TX,77571,3870,HARRIS,Super Store,29.664116,-95.099785,,,6639
-11833488.9630862,3733053.70284929,279043,Albertsons 2016,11320 Montwood Dr,,El Paso,TX,79936,4383,EL PASO,Supermarket,31.769209,-106.30204,,,6651
-10599385.1694648,3501004.22084298,278022,KROGER  367,3820 Atascocita Rd,,Humble,TX,77396,3564,HARRIS,Super Store,29.980194,-95.215897,,,6656
-10844562.0064768,3580718.09534225,279087,Walmart 77,3701 N MAIN ST,,TAYLOR,TX,76574,    ,WILLIAMSON,Super Store,30.598518,-97.418358,,,6666
-10908258.6851503,3020730.33159068,278076,Walmart STORE 1041,1310 N Texas Blvd,,Weslaco,TX,78599,4210,HIDALGO,Super Store,26.174667,-97.990555,,,6683
-10592200.0529315,3737143.68785704,279145,Brookshire Brothers 22,425 N Main St,,Rusk,TX,75785,1331,CHEROKEE,Super Store,31.80044,-95.151352,,,6690
-11191811.1355014,4363479.01263692,249273,Allsups 070,18 E Industrial Rd,,Booker,TX,79005,    ,LIPSCOMB,Convenience Store,36.455494,-100.53775,,,6697
-10779252.5310208,3861258.71970745,278236,JERRYS SUPERMARKET #3,532 W Jefferson Blvd,,Dallas,TX,75208,4722,DALLAS,Supermarket,32.743134,-96.831673,,,6709
-10592877.7659915,3446003.3087591,249291,Walmart SUPERCENTER 1062,150 W El Dorado Blvd,,Friendswood,TX,77546,6500,HARRIS,Super Store,29.551302,-95.15744,,,6728
-11227231.884277,3959531.23338783,249319,Allsups 082,322 W Hill St,,Spur,TX,79370,2046,DICKENS,Convenience Store,33.482552,-100.85594,,,6737
-10774374.0656563,3875481.48250046,309801,TOM THUMB 1973,7000 Snider Plz,,Dallas,TX,75205,1335,DALLAS,Supermarket,32.850533,-96.787849,,,6742
-10920384.9399214,3503299.83433957,249380,Brookshire Brothers 0067,14100 Ranch Road 12,,Wimberley,TX,78676,5354,HAYS,Super Store,29.998055,-98.099487,,,6758
-10635036.2382667,3469821.44880499,249393,Walgreens 6484,9600 Westheimer Rd,,Houston,TX,77063,3205,HARRIS,Other,29.737259,-95.536156,,,6764
-10638168.4347792,3452301.02699196,279305,Walgreens 7721,1307 Fm 1092 Rd,,Missouri City,TX,77459,1504,FORT BEND,Other,29.600504,-95.564293,,,6768
-10621584.1683603,3464427.04529919,249404,KROGER 740,7747 Kirby Dr,,Houston,TX,77030,4309,HARRIS,Super Store,29.695173,-95.415314,,,6780
-11349121.160721,3862310.81110634,249417,UNITED SUPERMARKET 540,2302 Lubbock Hwy,,Lamesa,TX,79331,2716,DAWSON,Supermarket,32.751083,-101.95089,,,6783
-10485332.5625336,3738265.98737854,263714,LA MEXICANA MEXICAN PRODUCTS,1145 Tenaha St,,Center,TX,75935,3009,SHELBY,Grocery Store,31.809008,-94.191345,,,6845
-10854646.5504673,2992791.61936628,263719,STRIPES 7754,840 Ruben Torres SR Blvd,,Brownsville,TX,78520,9133,CAMERON,Convenience Store,25.949209,-97.508949,,,6846
-10930964.7443264,3035185.90923665,263799,HEB 431,2700 W Freddy Gonzalez Dr,,Edinburg,TX,78539,7312,HIDALGO,Supermarket,26.291149,-98.194527,,,6852
-10615000.3997163,3458061.67008565,263811,WATKINS CENTER,10510 Cullen Blvd,,Houston,TX,77047,1198,HARRIS,Super Store,29.645489,-95.356171,,,6854
-10982952.9502776,3445559.14632065,264028,Target Store T1785,11311 Bandera Rd,,San Antonio,TX,78250,6812,BEXAR,Super Store,29.547831,-98.661545,,,6874
-10825523.2566054,3874181.37369882,264103,Walmart Supercenter 807,6401 NE Loop 820,,North Richland Hills,TX,76180,6041,TARRANT,Super Store,32.840721,-97.24733,,,6884
-10713706.9469248,3780551.84962496,264145,DOLLAR GENERAL 7489,1106 NW 2nd St,,Kerens,TX,75144,2429,NAVARRO,Other,32.131252,-96.242867,,,6888
-10569222.2628784,3581024.73507479,264181,HILL'S BAIT & TACKLE,205 Hill St,,Goodrich,TX,77335,7939,POLK,Specialty Store,30.600889,-94.944939,,,6889
-10960112.6397957,3424600.63829201,307938,DOLLAR GENERAL  7872,114 Goliad Rd,,San Antonio,TX,78223,1452,BEXAR,Other,29.383911,-98.456367,,,6902
-11364265.0642486,3761922.18034764,308183,Kent Kwik 304,1500 W Front St,,Midland,TX,79701,7005,MIDLAND,Convenience Store,31.989422,-102.08693,,,6919
-10637546.7154231,3463137.03530279,308337,Lewis Food Town 16,8800 W Sam Houston Pkwy S,Ste 140,Houston,TX,77099,5215,HARRIS,Supermarket,29.685106,-95.558708,,,6932
-11289570.7991212,4251291.1949389,308340,Allsups 244,3309 FM Road 1551,,Borger,TX,79007,8071,HUTCHINSON,Convenience Store,35.640678,-101.41594,,,6933
-10623252.1796104,3481491.13301778,308360,Walgreens 6619,1215 W 43rd St,,Houston,TX,77018,4203,HARRIS,Other,29.828243,-95.430298,,,6936
-10774430.1706796,3860641.19411373,308464,KIEST MARKET,3807 E Kiest Blvd,,Dallas,TX,75203,4122,DALLAS,Grocery Store,32.738468,-96.788353,,,6944
-10626566.9400877,3504718.20321697,308520,DOLLAR GENERAL 3114,2004 Cypress Creek Pkwy,,Houston,TX,77090,3102,HARRIS,Other,30.009089,-95.460075,,,6950
-10804804.5842985,3904926.83343309,308541,WALGREENS 04587,2360 Justin Rd,,Lewisville,TX,75077,3071,DENTON,Other,33.072468,-97.061211,,,6952
-10569752.1436546,3426043.32734767,308657,KROGER CO  108,3541 Palmer Hwy,,Texas City,TX,77590,6513,GALVESTON,Super Store,29.395203,-94.949699,,,6961
-11052666.0021505,3859531.5556695,308725,Allsups 175,427 US Highway 180 E,,Albany,TX,76430,3190,SHACKELFORD,Convenience Store,32.730083,-99.287788,,,6968
-11399760.3970829,4138933.59557204,308994,Allsups 167,515 S 25 Mile Ave,,Hereford,TX,79045,5003,DEAF SMITH,Convenience Store,34.816216,-102.40579,,,6994
-10754170.9139112,3877467.16865589,291608,Walmart SUPERCENTER 2975,3959 Broadway Blvd,,Garland,TX,75043,2586,DALLAS,Super Store,32.865517,-96.606361,,,7005
-10968097.8095092,4014569.09814628,291640,7-ELEVEN  214,2012 Grant St,,Wichita Falls,TX,76309,3936,WICHITA,Convenience Store,33.893936,-98.528099,,,7008
-10609509.6771524,3799506.8734134,291752,Walmart  2688,6801 S Broadway Ave,,Tyler,TX,75703,4733,SMITH,Super Store,32.275333,-95.306847,,,7017
-11848688.5263591,3753065.11623352,291767,WALGREENS 06543,10780 Kenworthy St,,El Paso,TX,79924,1754,EL PASO,Other,31.921915,-106.43858,,,7019
-10629339.1293669,3477400.84190964,291917,KROGER  346,1505 Wirt Rd,,Houston,TX,77055,4918,HARRIS,Super Store,29.796362,-95.484978,,,7033
-10698884.0888087,3909383.48618441,291980,BROOKSHIRE  74,6410 Wesley St,,Greenville,TX,75402,7366,HUNT,Supermarket,33.10601,-96.109711,,,7039
-10551059.0408021,3657023.79693271,292195,DOLLAR GENERAL 1695,225 N Temple Dr,,Diboll,TX,75941,    ,ANGELINA,Other,31.186733,-94.781776,,,7053
-10977976.8577197,3438679.71073568,292210,WALGREENS 03505,6635 Bandera Rd,,San Antonio,TX,78238,1436,BEXAR,Other,29.494055,-98.616844,,,7054
-11835688.6362243,3724268.39357402,292219,DOLLAR GENERAL 8816,500 N Zaragoza Rd,Ste I,El Paso,TX,79907,4737,EL PASO,Other,31.702089,-106.3218,,,7056
-11391845.5812875,3749627.40467761,292290,Walmart SC 0537,4210 John Ben Shepperd Pkwy,,Odessa,TX,79762,8153,ECTOR,Super Store,31.8957,-102.33469,,,7065
-11820796.3147459,3721963.17289689,292464,HORIZON VISTA SUPERMARKET,121 N Kenazo Ave,,Horizon City,TX,79928,5407,EL PASO,Other,31.684469,-106.18802,,,7079
-11379241.9885399,3649451.31385167,292479,ALLSUPS 288,1000 S BURLESON,,MCCAMEY,TX,79752,    ,UPTON,Convenience Store,31.128521,-102.22147,,,7081
-10870021.4419382,3642165.7627518,232821,CEFCO 15,926 Indian Trl,,Harker Heights,TX,76548,2149,BELL,Convenience Store,31.072481,-97.647064,,,7122
-10447948.9171769,3513297.2098123,292758,K-DAN'S SUPER FOODS,9604 Fm 105,,Orange,TX,77630,9261,ORANGE,Grocery Store,30.075802,-93.855522,,,7126
-10828978.1683217,3853214.75820714,310180,DOLLAR GENERAL 7095,3308 Mansfield Hwy,,Fort Worth,TX,76119,6026,TARRANT,Other,32.682335,-97.278366,,,7132
-10854927.743501,2989750.76974459,314131,DOLLAR GENERAL  9713,1304 Central Blvd,,Brownsville,TX,78520,7506,CAMERON,Other,25.924644,-97.511475,,,7133
-11074122.7226814,3186554.88094792,313487,SUNRISE CONV STORE,1519 Market St,,Laredo,TX,78040,8840,WEBB,Convenience Store,27.503782,-99.480537,,,7191
-10548007.5509205,3675941.92122925,313521,Brookshire Brothers 25,1807 W Frank Ave,Frnt,Lufkin,TX,75904,5108,ANGELINA,Super Store,31.332006,-94.754364,,,7192
-10581746.0395511,3480606.4028878,313755,DOLLAR GENERAL 7979,500 N Main St,,Highlands,TX,77562,2832,HARRIS,Other,29.821348,-95.057442,,,7213
-11810193.1332479,3690527.83949042,313791,Tornillo Dollar Plus,220 Flor Del Rio Dr,,Tornillo,TX,79853,2267,EL PASO,Convenience Store,31.443859,-106.09277,,,7216
-10861844.3574225,3905447.18906639,314073,Allsups 292,490 W Rock Island Ave,,Boyd,TX,76023,3104,WISE,Convenience Store,33.076385,-97.573608,,,7230
-10504614.2115339,3785572.99984824,310193,Walmart Supercenter 523,4609 NW Loop 436,,Carthage,TX,75633,9273,PANOLA,Super Store,32.169441,-94.364555,,,7241
-10886118.2403069,3533291.08948046,314147,Refuel 1327,2125 W Ben White Blvd,,Austin,TX,78704,7520,TRAVIS,Convenience Store,30.231106,-97.791664,,,7255
-11828160.0990619,3712484.05160259,292810,CHIDO INC,11880 Alameda Ave,,Socorro,TX,79927,3248,EL PASO,Convenience Store,31.61198,-106.25417,,,7258
-11281246.3275997,4026583.87514685,311149,LOWES 6,220 S 2nd St,,Floydada,TX,79235,2637,FLOYD,Grocery Store,33.983479,-101.34116,,,7296
-10913418.1209096,3293585.99983314,293973,STRIPES 40811,1800 N Highway 37,,George West,TX,78022,    ,LIVE OAK,Convenience Store,28.353266,-98.036903,,,7300
-10785715.6293367,3891836.02361111,312393,Albertsons 0269,2150 N Josey Ln,,Carrollton,TX,75006,2991,DALLAS,Supermarket,32.973869,-96.889732,,,7320
-10574085.3661532,3568146.11540974,232278,MC CLAINS FOOD MARKET,5450 Highway 59 N,,Shepherd,TX,77371,6929,SAN JACINTO,Supermarket,30.501259,-94.988625,,,7336
-11040369.8738365,3918999.21164261,232335,Allsups 221,102 S Minter,,THROCKMORTON,TX,76483,    ,THROCKMORTON,Convenience Store,33.178337,-99.17733,,,7342
-10967208.5894168,3443966.12214787,232483,Walgreens 4374,10411 West Ave,,San Antonio,TX,78213,1571,BEXAR,Other,29.535381,-98.520111,,,7365
-10784108.8438066,3878092.07188439,232663,STOP N BUY,9750 Brockbank Dr,Ste 1,Dallas,TX,75220,2998,DALLAS,Convenience Store,32.870232,-96.875298,,,7386
-10844100.8098265,3690336.03495721,232797,DOLLAR GENERAL 1853,809 W McGregor Dr,,MC Gregor,TX,76657,1131,MCLENNAN,Other,31.442389,-97.414215,,,7406
-10616303.1717171,3477524.63102826,311200,Fiesta Mart 49,4114 Fulton St,,Houston,TX,77009,3958,HARRIS,Super Store,29.797327,-95.367874,,,7420
-10945234.6785317,3027489.3243591,310310,HEB Convenience Store 588,2216 N Conway Ave,,Mission,TX,78572,    ,HIDALGO,Convenience Store,26.229145,-98.322716,,,7425
-11331640.6610818,4190072.67498313,310320,Walmart  822,3700 E Interstate 40,,Amarillo,TX,79103,6127,POTTER,Super Store,35.192505,-101.79386,,,7443
-10604984.5398517,3503341.48077035,294071,CARNIC. Y FRUT. CASE DEL PUEBLO,15 W Main St,,Humble,TX,77338,4308,HARRIS,Grocery Store,29.998379,-95.266197,,,7455
-10964892.5874108,3440077.02409994,314394,WALGREENS  3224,6901 San Pedro Ave,,San Antonio,TX,78216,6206,BEXAR,Other,29.50498,-98.499306,,,7464
-10663668.6131742,3446934.93496535,293174,Walgreens 2958,3316 Avenue H,,Rosenberg,TX,77471,2801,FORT BEND,Other,29.558582,-95.793365,,,7495
-10764511.158772,3867733.9661873,293198,CVS/ PHARMACY 6966,6004 Samuell Blvd,,Dallas,TX,75228,7115,DALLAS,Other,32.792046,-96.699249,,,7497
-11469647.8865978,4081113.36945437,293260,Lowes 66,901 Avenue A,,Farwell,TX,79325,4614,PARMER,Grocery Store,34.388687,-103.0336,,,7505
-10835104.1912195,3210421.6514381,293338,STRIPES 40284,7526 McArdle Rd,,Corpus Christi,TX,78412,4206,NUECES,Convenience Store,27.693785,-97.333397,,,7510
-11369017.2933105,3767814.14037821,293372,DK 812,4603 N Midkiff Rd,,Midland,TX,79705,2516,MIDLAND,Convenience Store,32.034302,-102.12962,,,7514
-10908729.1213184,3020560.52280445,293414,STRIPES 9121,102 W Expressway 83,,Weslaco,TX,78596,4344,HIDALGO,Convenience Store,26.173298,-97.994781,,,7516
-10833911.7368342,3758299.82039856,293502,DOLLAR GENERAL 4675,1222 N Brazos St,,Whitney,TX,76692,2002,HILL,Other,31.961819,-97.322685,,,7524
-11452581.4954643,3619011.28974794,294116,Miller Meat Company,1013 N Nelson St,,Fort Stockton,TX,79735,3917,PECOS,Specialty Store,30.894159,-102.88029,,,7563
-11319382.1587556,3984141.18593824,310367,DOLLAR GENERAL 6267,305 W 1st St,,Idalou,TX,79329,4009,LUBBOCK,Other,33.666744,-101.68374,,,7564
-10647310.3253216,3832334.67141561,311426,BROOKSHIRE FOOD STORE 2,706 W Main St,,Van,TX,75790,    ,VAN ZANDT,Supermarket,32.524323,-95.646416,,,7577
-10630261.4113482,3465909.17223057,310381,Walgreens 1580,6730 Hillcroft St,,Houston,TX,77081,4804,HARRIS,Other,29.706738,-95.493263,,,7585
-10818581.929757,3873295.94566696,290867,Walgreens 04132,780 W Bedford Euless Rd,,Hurst,TX,76053,3968,TARRANT,Other,32.834038,-97.184975,,,7592
-10934292.3065451,3601497.35296308,314501,DOLLAR GENERAL 1830,406 E Polk St,,Burnet,TX,78611,2540,BURNET,Other,30.759056,-98.224419,,,7609
-10642543.1794479,3493583.60570174,310442,KROGER 737,12400 Fm 1960 Rd W,,Houston,TX,77065,4809,HARRIS,Super Store,29.922436,-95.603592,,,7613
-10935963.6573799,3025222.36810949,311515,RUBENS GROCERY INC,620 N 20th St,,McAllen,TX,78501,6912,HIDALGO,Supermarket,26.210876,-98.239433,,,7617
-10786425.7363685,3788564.81175371,314531,DOLLAR GENERAL 6580,761 Dale Evans Dr,,Italy,TX,76651,3847,ELLIS,Other,32.192188,-96.896111,,,7623
-11367097.0320943,3768022.9325442,311546,7-ELEVEN 0816,4415 N Garfield St,,Midland,TX,79705,3401,MIDLAND,Convenience Store,32.035892,-102.11237,,,7624
-10455986.7410096,3494784.57990714,314578,Walmart SUPERCENTER  449,4999 N Twin City Hwy,,Port Arthur,TX,77642,5827,JEFFERSON,Super Store,29.931786,-93.927727,,,7643
-10576558.4399607,3473847.89745733,294324,DOLLAR GENERAL  2011,4220 Decker Dr,,Baytown,TX,77520,1640,HARRIS,Other,29.768661,-95.010841,,,7657
-10843862.1408382,3221099.95425617,291062,STRIPES 40860H,2002 Morgan Ave,,Corpus Christi,TX,78405,1542,NUECES,Convenience Store,27.778688,-97.412071,,,7670
-11104223.6243114,3820180.90181297,312148,ALLSUPS 215,2334 S 14th St,,Abilene,TX,79605,4245,TAYLOR,Convenience Store,32.43222,-99.750938,,,7725
-10642927.0090521,3474035.38975846,233035,RANDALLS  1011,14610 Memorial Dr,,Houston,TX,77079,7502,HARRIS,Supermarket,29.770123,-95.60704,,,7740
-11012844.9052234,3452960.90224159,233059,E-Z  Mart 4379,9335 Fm 1283,,Lakehills,TX,78063,6268,BANDERA,Convenience Store,29.605658,-98.930069,,,7755
-10547447.0572843,3830656.07933758,233089,DOLLAR GENERAL 4494,1404 McCann Rd,,Longview,TX,75601,3851,GREGG,Other,32.511608,-94.749329,,,7759
-11157268.6975083,3915248.33926476,294525,Allsups 185,829 N Broadway St,,Aspermont,TX,79502,2029,STONEWALL,Convenience Store,33.150131,-100.22745,,,7767
-10798726.0948232,3873639.61578842,233120,Walmart SUPERCENTER 880,4100 W Airport Fwy,,Irving,TX,75062,5913,DALLAS,Super Store,32.836632,-97.006607,,,7779
-10785924.576021,3672597.58648533,291238,HEB 104,435 Live Oak St,,Marlin,TX,76661,2367,FALLS,Supermarket,31.306341,-96.891609,,,7788
-10610674.8582626,3479470.90687255,314880,Fiesta Mart 50,5815 Lockwood Dr,,Houston,TX,77026,1823,HARRIS,Super Store,29.812498,-95.317314,,,7799
-11022357.9349481,3049047.75704577,291268,DOLLAR GENERAL 4496,207 N Estrella St,,Roma,TX,78584,5649,STARR,Other,26.402737,-99.015526,,,7801
-10762659.6930011,3897732.5705019,294553,La Michoacana Meat Market 17,1409 Jupiter Rd,# 102,Plano,TX,75074,6544,COLLIN,Super Store,33.018295,-96.682617,,,7802
-11438186.7721098,3991701.25505723,233147,Allsups 227,803 E Fillmore Ave,,Morton,TX,79346,3253,COCHRAN,Convenience Store,33.723248,-102.75098,,,7810
-10546968.8287519,3834164.4291099,233162,DOLLAR GENERAL 8078,2324 Judson Rd,,Longview,TX,75605,4672,GREGG,Other,32.538181,-94.745033,,,7815
-10595508.0229199,3457865.95681668,233347,EXPRESS MART #21,4401 Burke Rd,,Pasadena,TX,77504,3458,HARRIS,Convenience Store,29.643961,-95.181068,,,7868
-10913394.409858,3035394.7539473,291432,EL TIGRE FOOD STORE 07,1324 E Hwy 107,,LA BLANCA,TX,78558,9998,HIDALGO,Convenience Store,26.292831,-98.03669,,,7882
-10834572.5293315,3279046.26977189,310824,Tuttles Grocery & Market,207 Second St,,Woodsboro,TX,78393,    ,REFUGIO,Other,28.23826,-97.328621,,,7897
-10873845.043808,3019050.44106661,312588,STRIPES 40739,202 N ED Carey Dr,,Harlingen,TX,78550,7908,CAMERON,Convenience Store,26.161123,-97.681412,,,7910
-11174510.9734373,4289243.95197157,233429,LOWES 20,404 N 2nd St,,Canadian,TX,79014,2302,HEMPHILL,Super Store,35.917271,-100.38234,,,7920
-10783983.052782,3860051.09431714,312681,WALGREENS  3956,1104 S Westmoreland Rd,,Dallas,TX,75211,5651,DALLAS,Other,32.734009,-96.874168,,,7937
-10814889.1282889,3412592.36029656,310951,DOLLAR GENERAL 3448,304 W Grand Ave,,Yoakum,TX,77995,2616,LAVACA,Other,29.289873,-97.151802,,,7939
-10848889.9969594,3640617.29188056,310983,DOLLAR GENERAL  1222,501 E 6th Ave,,Belton,TX,76513,2704,BELL,Other,31.060566,-97.457237,,,7959
-10882427.2199507,3794460.92376987,233618,Dollar General 3638,208 NE Big Bend Trl,,Glen Rose,TX,76043,4701,SOMERVELL,Other,32.237,-97.758507,,,7979
-10797717.0949587,3359727.24816822,233690,Speedy Stop 01,8701 N Navarro St,,Victoria,TX,77904,2601,VICTORIA,Convenience Store,28.874853,-96.997543,,,7988
-10827120.8026178,3860940.55631917,334322,Walgreens 06996,4200 E Lancaster Ave,,Fort Worth,TX,76103,3223,TARRANT,Other,32.74073,-97.261681,,,8001
-11099098.1409968,3822278.68121885,334432,7-Eleven 094,1001 US Highway 80 E,,Abilene,TX,79601,6203,TAYLOR,Convenience Store,32.448124,-99.704895,,,8023
-10939297.2308512,3450775.65866162,334667,Walgreens 05963,3801 Roy Richard Dr,,Schertz,TX,78154,1132,GUADALUPE,Other,29.588589,-98.269379,,,8046
-10598531.5716094,3459748.66743424,334779,Lewis Food Town 5,3316 S Shaver St,,Houston,TX,77587,    ,HARRIS,Supermarket,29.658659,-95.208229,,,8059
-11439119.6294427,3991301.88023976,334927,Allsups 016,602 S Main St,,Morton,TX,79346,3418,COCHRAN,Convenience Store,33.720264,-102.75936,,,8068
-10593543.6791854,3503800.62882838,335312,KROGER  318,19300 W Lake Houston Pkwy,,Humble,TX,77346,2182,HARRIS,Super Store,30.001951,-95.163422,,,8100
-11158204.8944259,4087728.31003239,273602,Walmart SUPERCENTER 900,2801 Avenue F NW,,Childress,TX,79201,2229,CHILDRESS,Super Store,34.43771,-100.23586,,,8114
-10979943.873122,3441435.98400861,381178,Walmart Supercenter 5146,8030 Bandera Rd,,San Antonio,TX,78250,5130,BEXAR,Super Store,29.515604,-98.634514,,,8126
-10569072.7608023,3859569.93140435,315449,DOLLAR GENERAL 7471,207 US HWY 271 N,,Gilmer,TX,75644,    ,UPSHUR,Other,32.730373,-94.943596,,,8165
-10777401.0652499,3871558.00832788,315515,Whole Foods Market 10140,4100 Lomo Alto Dr,,Dallas,TX,75219,1535,DALLAS,Super Store,32.820919,-96.815041,,,8174
-11105169.8399831,3820331.39038976,379463,HEB 070,1345 Barrow St,,Abilene,TX,79605,5171,TAYLOR,Supermarket,32.433361,-99.759438,,,8191
-10850872.2631319,3638714.03659384,379812,CEFCO 18,614 W Avenue O,,Belton,TX,76513,4117,BELL,Convenience Store,31.045919,-97.475044,,,8217
-10941720.2108878,3026997.65907989,274870,VALLEY 2741522,2004 E Griffin Pkwy,,Mission,TX,78572,3223,HIDALGO,Convenience Store,26.225183,-98.291145,,,8323
-11221299.6686126,4351937.62605003,382421,United Supermarket 525,2806 S Main St,,Perryton,TX,79070,5346,OCHILTREE,Supermarket,36.372059,-100.80265,,,8331
-10758882.066081,3884186.98573961,332357,KROGER 559,1406 W Walnut St,,Garland,TX,75042,5841,DALLAS,Super Store,32.916206,-96.648682,,,8337
-10842167.8581883,3863495.89954987,273735,SDS FOOD MART,4924 White Settlement Rd,,Fort Worth,TX,76114,3919,TARRANT,Convenience Store,32.760036,-97.396851,,,8344
-11075337.218326,3191405.32902961,381441,Valero Corner Store 2741043,401 E Calton Rd,,Laredo,TX,78041,6341,WEBB,Convenience Store,27.542423,-99.491447,,,8348
-10858999.2538768,3905669.180866,381855,DOLLAR GENERAL  8838,901 E Rock Island Ave,,Boyd,TX,76023,3052,WISE,Other,33.078056,-97.54805,,,8385
-10781807.202015,3842867.8966608,381996,TOM THUMB  3623,210 E Pleasant Run Rd,,Desoto,TX,75115,3938,DALLAS,Supermarket,32.604069,-96.854622,,,8396
-10931046.2301936,3014965.88603774,382135,Alvarados Bakery,6816 S Cage Blvd,,Pharr,TX,78577,9044,HIDALGO,Convenience Store,26.128185,-98.195259,,,8406
-10881980.4948341,3300855.18700107,382146,DOLLAR GENERAL  3275,1103 N Washington St,,Beeville,TX,78102,3307,BEE,Other,28.410717,-97.754494,,,8408
-10845763.7003799,3576781.84892329,382632,QUICK WAY GROCERY,1802 W 2nd St,,Taylor,TX,76574,2280,WILLIAMSON,Convenience Store,30.568077,-97.429153,,,8466
-11392438.9141734,3748377.79692661,332450,7-ELEVEN 0102,3900 Tanglewood Ln,,Odessa,TX,79762,7165,ECTOR,Convenience Store,31.886169,-102.34002,,,8467
-10775180.9093255,3899205.37884094,380337,Whole Foods Market 10030,2201 Preston Rd,Ste C,Plano,TX,75093,2306,COLLIN,Super Store,33.029388,-96.795097,,,8471
-10929388.4603367,3023157.48802021,273809,STRIPES 7308,328 E US Highway 83,,Pharr,TX,78577,4835,HIDALGO,Convenience Store,26.194233,-98.180367,,,8483
-10621014.2125674,3478805.56573885,331389,HEB Food Store 737,2300 N Shepherd Dr,,Houston,TX,77008,1997,HARRIS,Supermarket,29.807312,-95.410194,,,8486
-10823208.9243918,3008148.04617736,295030,STRIPES 9117,1685 State Highway 100,,Port Isabel,TX,78578,2806,CAMERON,Convenience Store,26.073185,-97.22654,,,8488
-10637232.4605006,3507691.96818867,332483,KROGER 738,8745 Spring Cypress Rd,,Spring,TX,77379,3134,HARRIS,Super Store,30.032219,-95.555885,,,8497
-10910939.9264055,3017382.15456547,380377,Corner Stop Store Inc,2501 N 6th 1/2 W Rd.,,WESLACO,TX,78596,    ,HIDALGO,Convenience Store,26.147671,-98.014641,,,8501
-10839012.6185413,3846927.51043374,273851,Walgreens 3878,3425 Sycamore School Rd,,Fort Worth,TX,76123,3030,TARRANT,Other,32.634785,-97.368507,,,8503
-11017957.6981161,3727919.0475514,295086,Dollar General 7682,315 E Commerce St,,Brownwood,TX,76801,1823,BROWN,Other,31.729986,-98.975998,,,8513
-11846760.4727786,3750597.31322199,382737,7-ELEVEN 0609,5201 Fairbanks Dr,,El Paso,TX,79924,3906,EL PASO,Convenience Store,31.903097,-106.42126,,,8522
-10799809.7900661,3856834.31888332,272719,CVS/ PHARMACY INC 7421,810 W Pioneer Pkwy,,Grand Prairie,TX,75051,4708,DALLAS,Other,32.709698,-97.016342,,,8535
